ID,Line Company ID,Name,Name K,Name H,Color C,Color T,Line Type,Lon,Lat,Zoom,Status,Sort,Created At,Updated At,Stations List
99918,237,熊本電鉄上熊本線,クマモトデンテツカミクマモトセン,熊本電鉄上熊本線,,,,130.70907904760747,32.823570912231084,14,0,"99,918","2019/2/27, 9:42 AM","2019/12/9, 7:19 AM","{上熊本,韓々坂,池田,打越,坪井川公園,北熊本}"
11410,1,JR弥彦線,ヤヒコセン,JR弥彦線,,,,138.90443525195315,37.67331836340108,12,0,"11,410","2019/2/27, 9:42 AM","2019/12/9, 7:18 AM","{弥彦,矢作,吉田,西燕,燕,燕三条,北三条,東三条}"
11407,1,JR飯山線,イイヤマセン,JR飯山線,,,,138.54173229090247,36.984460109833044,10,0,"11,407","2019/2/27, 9:42 AM","2019/12/9, 7:18 AM","{長野,北長野,三才,豊野,信濃浅野,立ケ花,上今井,替佐,蓮,飯山,北飯山,信濃平,戸狩野沢温泉,上境,上桑名川,桑名川,西大滝,信濃白鳥,平滝,横倉,森宮野原,足滝,越後田中,津南,越後鹿渡,越後田沢,越後水沢,土市,十日町,魚沼中条,下条,越後岩沢,内ケ巻,越後川口}"
11403,1,JR信越本線(篠ノ井～長野),シンエツホンセン,JR信越本線(篠ノ井～長野),,,,138.1598162697628,36.608595973876,12,0,"11,403","2019/2/27, 9:42 AM","2019/12/9, 7:18 AM","{篠ノ井,今井,川中島,安茂里,長野}"
11340,1,JR日光線,ニッコウセン,JR日光線,,,,139.75294070367875,36.636143451156286,11,0,"11,340","2019/2/27, 9:42 AM","2019/12/9, 7:18 AM","{宇都宮,鶴田,鹿沼,文挟,下野大沢,今市,日光}"
11339,1,JR水戸線,ミトセン,JR水戸線,,,,140.05132073046877,36.33356508850502,10,0,"11,339","2019/2/27, 9:42 AM","2019/12/9, 7:18 AM","{小山,小田林,結城,東結城,川島,玉戸,下館,新治,大和,岩瀬,羽黒,福原,稲田,笠間,宍戸,友部}"
11337,1,JR信越本線,シンエツホンセン,JR信越本線,,,,138.88077508398442,36.33038233956756,11,0,"11,337","2019/2/27, 9:42 AM","2019/12/9, 7:18 AM","{高崎,北高崎,群馬八幡,安中,磯部,松井田,西松井田,横川}"
11335,1,JR吾妻線,アヅマセン,JR吾妻線,,,,138.79130356098312,36.55204126285844,10,0,"11,335","2019/2/27, 9:42 AM","2019/12/9, 7:18 AM","{渋川,金島,祖母島,小野上,小野上温泉,市城,中之条,群馬原町,郷原,矢倉,岩島,川原湯温泉,長野原草津口,群馬大津,羽根尾,袋倉,万座・鹿沢口,大前}"
11331,1,JR東金線,トウガネセン,JR東金線,,,,140.36805862753909,35.56232865844527,12,0,"11,331","2019/2/27, 9:42 AM","2019/12/9, 7:18 AM","{大網,福俵,東金,求名,成東}"
11329,1,JR鹿島線,カシマセン,JR鹿島線,,,,140.56469727510876,35.942684415907046,12,0,"11,329","2019/2/27, 9:42 AM","2019/12/9, 7:18 AM","{佐原,香取,十二橋,潮来,延方,鹿島神宮,鹿島サッカースタジアム（臨）}"
11322,1,JR川越線,カワゴエセン,JR川越線,,,,139.46934263476567,35.90961045562882,11,0,"11,322","2019/2/27, 9:42 AM","2019/12/9, 7:18 AM","{大宮,日進,西大宮,指扇,南古谷,川越,西川越,的場,笠幡,武蔵高萩,高麗川}"
11318,1,JR八高線(高麗川～高崎),ハチコウセン,JR八高線(高麗川～高崎),,,,139.17965333593747,36.12104162150663,10,0,"11,318","2019/2/27, 9:42 AM","2019/12/9, 7:18 AM","{高麗川,毛呂,越生,明覚,小川町,竹沢,折原,寄居,用土,松久,児玉,丹荘,群馬藤岡,北藤岡,倉賀野,高崎}"
11307,1,JR根岸線,ネギシセン,JR根岸線,,,,139.59867881738285,35.414845593462225,12,0,3,"2019/2/27, 9:42 AM","2019/12/9, 7:18 AM","{横浜,桜木町,関内,石川町,山手,根岸,磯子,新杉田,洋光台,港南台,本郷台,大船}"
11306,1,JR横浜線,ヨコハマセン,JR横浜線,,,,139.4711185,35.56100410614944,11,0,8,"2019/2/27, 9:42 AM","2019/12/9, 7:18 AM","{東神奈川,大口,菊名,新横浜,小机,鴨居,中山,十日市場,長津田,成瀬,町田,古淵,淵野辺,矢部,相模原,橋本,相原,八王子みなみ野,片倉,八王子}"
11315,1,JR青梅線,オウメセン,JR青梅線,,,,139.2400413547656,35.782572650078514,11,0,13,"2019/2/27, 9:42 AM","2019/12/9, 7:19 AM","{立川,西立川,東中神,中神,昭島,拝島,牛浜,福生,羽村,小作,河辺,東青梅,青梅,宮ノ平,日向和田,石神前,二俣尾,軍畑,沢井,御嶽,川井,古里,鳩ノ巣,白丸,奥多摩}"
11316,1,JR五日市線,イツカイチセン,JR五日市線,,,,139.29165743387557,35.725830442825945,12,0,14,"2019/2/27, 9:42 AM","2019/12/9, 7:19 AM","{拝島,熊川,東秋留,秋川,武蔵引田,武蔵増戸,武蔵五日市}"
11317,1,JR八高線(八王子～高麗川),ハチコウセン,JR八高線(八王子～高麗川),,,,139.33299376182276,35.78050242395001,11,0,16,"2019/2/27, 9:42 AM","2019/12/9, 7:19 AM","{八王子,北八王子,小宮,拝島,東福生,箱根ケ崎,金子,東飯能,高麗川}"
11323,1,JR高崎線,タカサキセン,JR高崎線,,,,139.45218074609375,36.09573564081418,9,0,18,"2019/2/27, 9:42 AM","2019/12/9, 7:19 AM","{上野,尾久,赤羽,浦和,さいたま新都心,大宮,宮原,上尾,北上尾,桶川,北本,鴻巣,北鴻巣,吹上,行田,熊谷,籠原,深谷,岡部,本庄,神保原,新町,倉賀野,高崎}"
11326,1,JR京葉線,ケイヨウセン,JR京葉線,,,,139.9361100290787,35.643649620088546,11,0,21,"2019/2/27, 9:42 AM","2019/12/9, 7:19 AM","{東京,八丁堀,越中島,潮見,新木場,葛西臨海公園,舞浜,新浦安,市川塩浜,西船橋,二俣新町,南船橋,新習志野,海浜幕張,検見川浜,稲毛海岸,千葉みなと,蘇我}"
11343,1,上野東京ライン,ウエノトウキョウライン,上野東京ライン,,,,139.7721004486084,35.69745580725804,14,0,24,"2019/2/27, 9:42 AM","2019/12/9, 7:19 AM","{東京,上野}"
11228,1,ゆうゆうあぶくまライン,ユウユウアブクマライン,JR磐越東線,,,,140.64261227539066,37.26977723900093,10,0,"11,228","2019/2/27, 9:42 AM","2019/12/9, 7:19 AM","{いわき,赤井,小川郷,江田,川前,夏井,小野新町,神俣,菅谷,大越,磐城常葉,船引,要田,三春,舞木,郡山}"
11225,1,JR磐越西線(郡山～会津若松),バンエツサイセン,JR磐越西線(郡山～会津若松),,,,140.13079052057628,37.51773392643219,10,0,"11,225","2019/2/27, 9:42 AM","2019/12/9, 7:19 AM","{郡山,郡山富田,喜久田,安子ケ島,磐梯熱海,中山宿,上戸,猪苗代湖畔,関都,川桁,猪苗代,翁島,磐梯町,東長原,広田,会津若松}"
11224,1,JR気仙沼線,ケセンヌマセン,JR気仙沼線,,,,141.4644575791475,38.696179754212224,10,0,"11,224","2019/2/27, 9:42 AM","2019/12/9, 7:19 AM","{前谷地,和渕,のの岳,陸前豊里,御岳堂,柳津,陸前横山,陸前戸倉,志津川,清水浜,歌津,陸前港,蔵内,陸前小泉,本吉,小金沢,大谷海岸,陸前階上,最知,松岩,南気仙沼,不動の沢,気仙沼}"
11220,1,奥の細道最上川ライン,オクノホソミチモガミガワライン,JR陸羽西線,,,,140.09618463593756,38.75534124228886,10,0,"11,220","2019/2/27, 9:42 AM","2019/12/9, 7:19 AM","{新庄,升形,羽前前波,津谷,古口,高屋,清川,狩川,南野,余目}"
11219,1,JR米坂線,ヨネサカセン,JR米坂線,,,,139.77035691874994,38.04498397385662,10,0,"11,219","2019/2/27, 9:42 AM","2019/12/9, 7:19 AM","{米沢,南米沢,西米沢,成島,中郡,羽前小松,犬川,今泉,萩生,羽前椿,手ノ子,羽前沼沢,伊佐領,羽前松岡,小国,越後金丸,越後片貝,越後下関,越後大島,坂町}"
11215,1,JR男鹿線,オガセン,JR男鹿線,,,,139.95867900531903,39.892399877361996,11,0,"11,215","2019/2/27, 9:42 AM","2019/12/9, 7:19 AM","{追分,出戸浜,上二田,二田,天王,船越,脇本,羽立,男鹿}"
11213,1,JR山田線,ヤマダセン,JR山田線,,,,141.66678736171878,39.59692921568168,9,0,"11,213","2019/2/27, 9:42 AM","2019/12/9, 7:19 AM","{盛岡,上盛岡,山岸,上米内,大志田,浅岸,区界,松草,平津戸,川内,箱石,陸中川井,腹帯,茂市,蟇目,花原市,千徳,宮古,磯鶏,津軽石,豊間根,陸中山田,織笠,岩手船越,浪板海岸,吉里吉里,大槌,鵜住居,両石,釜石}"
11211,1,JR田沢湖線,タザワコセン,JR田沢湖線,,,,140.7685672041631,39.69344849769617,10,0,"11,211","2019/2/27, 9:42 AM","2019/12/9, 7:19 AM","{盛岡,大釜,小岩井,雫石,春木場,赤渕,田沢湖,刺巻,神代,生田,角館,鶯野,羽後長野,鑓見内,羽後四ツ屋,北大曲,大曲}"
11208,1,ドラゴンレール大船渡線,ドラゴンレールオオフナトセン,JR大船渡線,,,,141.47242982203124,38.9616406875796,10,0,"11,208","2019/2/27, 9:42 AM","2019/12/9, 7:19 AM","{一ノ関,真滝,陸中門崎,岩ノ下,陸中松川,猊鼻渓,柴宿,摺沢,千厩,小梨,矢越,折壁,新月,気仙沼,鹿折唐桑,上鹿折,陸前矢作,竹駒,陸前高田,脇ノ沢,小友,細浦,下船渡,大船渡,盛}"
11205,1,JR津軽線,ツガルセン,JR津軽線,,,,140.63796429123374,40.99724897538404,10,0,"11,205","2019/2/27, 9:42 AM","2019/12/9, 7:19 AM","{青森,油川,津軽宮田,奥内,左堰,後潟,中沢,蓬田,郷沢,瀬辺地,蟹田,中小国,大平,津軽二股,大川平,今別,津軽浜名,三厩}"
11203,1,はまなすベイライン大湊線,ハマナスベイラインオオミナトセン,JR大湊線,,,,141.2341888746413,41.07704832867053,10,0,"11,203","2019/2/27, 9:42 AM","2019/12/9, 7:19 AM","{野辺地,北野辺地,有戸,吹越,陸奥横浜,有畑,近川,金谷沢,赤川,下北,大湊}"
11201,1,JR東北本線(八戸～青森),トウホクホンセン,JR東北本線(八戸～青森),,,,141.14722775976566,40.69791852440822,10,2,"11,201","2019/2/27, 9:42 AM","2019/12/9, 7:19 AM",{八戸}
11513,1,JR名松線,メイショウセン,JR名松線,,,,136.38817526784192,34.60028531549939,11,0,"11,513","2019/2/27, 9:42 AM","2019/12/9, 7:19 AM","{松阪,上ノ庄,権現前,伊勢八太,一志,井関,伊勢大井,伊勢川口,関ノ宮,家城,伊勢竹原,伊勢鎌倉,伊勢八知,比津,伊勢奥津}"
11512,1,JR参宮線,サングウセン,JR参宮線,,,,136.69878007155808,34.495826004110725,11,0,"11,512","2019/2/27, 9:42 AM","2019/12/9, 7:19 AM","{多気,外城田,田丸,宮川,山田上口,伊勢市,五十鈴ケ丘,二見浦,松下,池の浦シーサイド,鳥羽}"
11507,1,JR太多線,オオタセン,JR太多線,,,,137.06259225390625,35.391158361729275,12,0,"11,507","2019/2/27, 9:42 AM","2019/12/9, 7:19 AM","{多治見,小泉,根本,姫,下切,可児,美濃川合,美濃太田}"
11506,1,JR武豊線,タケトヨセン,JR武豊線,,,,136.9586884095703,34.93257926822995,12,0,"11,506","2019/2/27, 9:42 AM","2019/12/9, 7:19 AM","{大府,尾張森岡,緒川,石浜,東浦,亀崎,乙川,半田,東成岩,武豊}"
11301,1,JR東海道本線(東京～熱海),トウカイドウホンセン,JR東海道本線(東京～熱海),,,,139.4302441326313,35.39507962341528,10,0,4,"2019/2/27, 9:42 AM","2019/12/9, 7:19 AM","{東京,新橋,品川,川崎,横浜,戸塚,大船,藤沢,辻堂,茅ケ崎,平塚,大磯,二宮,国府津,鴨宮,小田原,早川,根府川,真鶴,湯河原,熱海}"
11304,1,JR鶴見線,ツルミセン,JR鶴見線,,,,139.6973422022627,35.50322701541729,13,0,7,"2019/2/27, 9:42 AM","2019/12/9, 7:19 AM","{鶴見,国道,鶴見小野,弁天橋,浅野,新芝浦,海芝浦,安善,大川,武蔵白石,浜川崎,昭和,扇町}"
11413,1,JR飯田線(豊橋～天竜峡),イイダセン,JR飯田線(豊橋～天竜峡),,,,137.6689493601425,35.12564790559256,10,0,"11,413","2019/2/27, 9:42 AM","2019/12/9, 7:19 AM","{豊橋,船町,下地,小坂井,牛久保,豊川,三河一宮,長山,江島,東上,野田城,新城,東新町,茶臼山,三河東郷,大海,鳥居,長篠城,本長篠,三河大野,湯谷温泉,三河槙原,柿平,三河川合,池場,東栄,出馬,上市場,浦川,早瀬,下川合,中部天竜,佐久間,相月,城西,向市場,水窪,大嵐,小和田,中井侍,伊那小沢,鶯巣,平岡,為栗,温田,田本,門島,唐笠,金野,千代,天竜峡}"
11901,1,JR博多南線,ハカタミナミセン,JR博多南線,,,,130.42880949999994,33.56485012227771,12,0,"11,901","2019/2/27, 9:42 AM","2019/12/9, 7:19 AM","{博多,博多南}"
11724,1,JR岩徳線,ガントクセン,JR岩徳線,,,,132.05697608203127,34.093477630991565,11,0,"11,724","2019/2/27, 9:42 AM","2019/12/9, 7:19 AM","{岩国,西岩国,川西,柱野,欽明路,玖珂,周防高森,米川,高水,勝間,大河内,周防久保,生野屋,周防花岡,櫛ケ浜,徳山}"
11722,1,JR美祢線,ミネセン,JR美祢線,,,,131.18069311027875,34.23328101840961,11,0,"11,722","2019/2/27, 9:42 AM","2019/12/9, 7:19 AM","{厚狭,湯ノ峠,厚保,四郎ケ原,南大嶺,美祢,重安,於福,渋木,長門湯本,板持,長門市,仙崎}"
11717,1,JR可部線,カベセン,JR可部線,,,,132.47781461538,34.458222540776696,12,0,"11,717","2019/2/27, 9:42 AM","2019/12/9, 7:19 AM","{広島,新白島,横川,三滝,安芸長束,下祇園,古市橋,大町,緑井,七軒茶屋,梅林,上八木,中島,可部,河戸帆待川,あき亀山}"
11715,1,JR津山線,ツヤマセン,JR津山線,,,,133.92270229112876,34.89119811118178,10,0,"11,715","2019/2/27, 9:42 AM","2019/12/9, 7:19 AM","{津山,津山口,佐良山,亀甲,小原,誕生寺,弓削,神目,福渡,建部,金川,野々口,牧山,玉柏,備前原,法界院,岡山}"
11713,1,JR吉備線,キビセン,JR吉備線,,,,133.82726757246087,34.681156069560714,12,0,"11,713","2019/2/27, 9:42 AM","2019/12/9, 7:19 AM","{岡山,備前三門,大安寺,備前一宮,吉備津,備中高松,足守,服部,東総社,総社}"
11707,1,JR三江線,サンコウセン,JR三江線,,,,132.56298278822692,34.94301166412021,10,2,"11,707","2019/2/27, 9:42 AM","2019/12/9, 7:19 AM","{江津,江津本町,千金,川平,川戸,田津,石見川越,鹿賀,因原,石見川本,木路原,竹,乙原,石見簗瀬,明塚,粕淵,浜原,沢谷,潮,石見松原,石見都賀,宇都井,伊賀和志,口羽,江平,作木口,香淀,式敷,信木,所木,船佐,長谷,粟屋,尾関山,三次}"
11704,1,JR因美線,インビセン,JR因美線,,,,134.15001556289064,35.26468997449499,10,0,"11,704","2019/2/27, 9:42 AM","2019/12/9, 7:19 AM","{鳥取,津ノ井,東郡家,郡家,河原,国英,鷹狩,用瀬,因幡社,智頭,土師,那岐,美作河井,知和,美作加茂,三浦,美作滝尾,高野,東津山,津山}"
11641,1,おおさか東線,オオサカヒガシセン,おおさか東線,,,,135.57427154498737,34.6569679065075,13,0,"11,641","2019/2/27, 9:42 AM","2019/12/9, 7:19 AM","{新大阪,南吹田,JR淡路,城北公園通,JR野江,鴫野,放出,高井田中央,ＪＲ河内永和,ＪＲ俊徳道,ＪＲ長瀬,衣摺加美北,新加美,久宝寺}"
11640,1,紀勢本線(和歌山～和歌山市),キセイホンセン,紀勢本線(和歌山～和歌山市),,,,135.17833371427741,34.23803306849786,14,0,"11,640","2019/2/27, 9:42 AM","2019/12/9, 7:19 AM","{和歌山,紀和,和歌山市}"
11637,1,万葉まほろば線,マンヨウマホロバセン,桜井線,,,,135.80071228557904,34.58068954514851,12,0,"11,637","2019/2/27, 9:42 AM","2019/12/9, 7:19 AM","{奈良,京終,帯解,櫟本,天理,長柄,柳本,巻向,三輪,桜井,香久山,畝傍,金橋,高田}"
11635,1,JR播但線,バンタンセン,JR播但線,,,,134.76405417729814,35.11319295999237,10,0,"11,635","2019/2/27, 9:42 AM","2019/12/9, 7:19 AM","{姫路,京口,野里,砥堀,仁豊野,香呂,溝口,福崎,甘地,鶴居,新野,寺前,長谷,生野,新井,青倉,竹田,和田山}"
11633,1,JR姫新線(姫路～佐用),キシンセン,JR姫新線(姫路～佐用),,,,134.5265431282519,34.925861603836715,11,0,"11,633","2019/2/27, 9:42 AM","2019/12/9, 7:19 AM","{姫路,播磨高岡,余部,太市,本竜野,東觜崎,播磨新宮,千本,西栗栖,三日月,播磨徳久,佐用}"
11630,1,福知山線(篠山口～福知山),フクチヤマセン,福知山線(篠山口～福知山),,,,135.10557603593747,35.16077076962344,11,0,"11,630","2019/2/27, 9:42 AM","2019/12/9, 7:19 AM","{篠山口,丹波大山,下滝,谷川,柏原,石生,黒井,市島,丹波竹田,福知山}"
11628,1,JR関西空港線,カンサイクウコウセン,JR関西空港線,,,,135.28886841796873,34.415185002847146,12,0,"11,628","2019/2/27, 9:42 AM","2019/12/9, 7:19 AM","{日根野,りんくうタウン,関西空港}"
11627,1,羽衣線,ハゴロモセン,阪和線(鳳～東羽衣),,,,135.44957737036134,34.53405856707458,14,0,"11,627","2019/2/27, 9:42 AM","2019/12/9, 7:19 AM","{鳳,東羽衣}"
11625,1,JR東西線,トウザイセン,JR東西線,,,,135.47296650254543,34.70792547579644,13,0,"11,625","2019/2/27, 9:42 AM","2019/12/9, 7:19 AM","{京橋,大阪城北詰,大阪天満宮,北新地,新福島,海老江,御幣島,加島,尼崎}"
11624,1,JRゆめ咲線,ユメサキセン,JR桜島線,,,,135.4474451865234,34.67404443238088,13,0,"11,624","2019/2/27, 9:42 AM","2019/12/9, 7:19 AM","{西九条,安治川口,ユニバーサルシティ,桜島}"
99919,238,高森線,タカモリセン,南阿蘇鉄道高森線,,,,131.0451261359375,32.84393956616183,12,0,"99,919","2019/2/27, 9:42 AM","2019/12/9, 7:19 AM","{立野,長陽,加勢,阿蘇下田城ふれあい温泉,南阿蘇水の生まれる里白水高原,中松,阿蘇白川,南阿蘇白川水源,見晴台,高森}"
11617,1,学研都市線,ガッケントシセン,JR片町線,,,,135.69016458203123,34.75999839811898,11,0,"11,617","2019/2/27, 9:42 AM","2019/12/9, 7:19 AM","{木津,西木津,祝園,下狛,ＪＲ三山木,同志社前,京田辺,大住,松井山手,長尾,藤阪,津田,河内磐船,星田,寝屋川公園,忍ケ丘,四条畷,野崎,住道,鴻池新田,徳庵,放出,鴫野,京橋}"
11614,1,嵯峨野線,サガノセン,JR山陰本線(京都～園部),,,,135.6041556643263,35.053071042585806,11,0,"11,614","2019/2/27, 9:42 AM","2019/12/9, 7:19 AM","{京都,梅小路京都西,丹波口,二条,円町,花園,太秦,嵯峨嵐山,保津峡,馬堀,亀岡,並河,千代川,八木,吉富,園部}"
11613,1,JR山陽本線(兵庫～和田岬),サンヨウホンセン,JR山陽本線(兵庫～和田岬),,,,135.16794204760743,34.66577551629847,14,0,"11,613","2019/2/27, 9:42 AM","2019/12/9, 7:19 AM","{兵庫,和田岬}"
11610,1,JR山陽本線(岡山～三原),サンヨウホンセン,JR山陽本線(岡山～三原),,,,133.56375767656255,34.52304140000002,10,0,"11,610","2019/2/27, 9:42 AM","2019/12/9, 7:19 AM","{岡山,北長瀬,庭瀬,中庄,倉敷,西阿知,新倉敷,金光,鴨方,里庄,笠岡,大門,東福山,福山,備後赤坂,松永,東尾道,尾道,糸崎,三原}"
11608,1,JR神戸線(神戸～姫路),コウベセン,JR山陽本線(神戸～姫路),,,,134.9283386608638,34.71997139040552,10,0,"11,608","2019/2/27, 9:42 AM","2019/12/9, 7:19 AM","{神戸,兵庫,新長田,鷹取,須磨海浜公園,須磨,塩屋,垂水,舞子,朝霧,明石,西明石,大久保,魚住,土山,東加古川,加古川,宝殿,曽根,ひめじ別所,御着,東姫路,姫路}"
11603,1,JR神戸線(大阪～神戸),コウベセン,JR東海道本線(大阪～神戸),,,,135.33472853125,34.72876179054988,11,0,"11,603","2019/2/27, 9:42 AM","2019/12/9, 7:19 AM","{大阪,塚本,尼崎,立花,甲子園口,西宮,さくら夙川,芦屋,甲南山手,摂津本山,住吉,六甲道,摩耶,灘,三ノ宮,元町,神戸}"
11601,1,琵琶湖線,ビワコセン,JR東海道本線(米原～京都),,,,136.0951368726562,35.11930882700303,10,0,"11,601","2019/2/27, 9:42 AM","2019/12/9, 7:19 AM","{米原,彦根,南彦根,河瀬,稲枝,能登川,安土,近江八幡,篠原,野洲,守山,栗東,草津,南草津,瀬田,石山,膳所,大津,山科,京都}"
11509,1,JR関西本線(亀山～加茂),カンサイホンセン,JR関西本線(亀山～加茂),,,,136.17498940495125,34.80143441666701,10,0,"11,509","2019/2/27, 9:42 AM","2019/12/9, 7:19 AM","{亀山,関,加太,柘植,新堂,佐那具,伊賀上野,島ケ原,月ケ瀬口,大河原,笠置,加茂}"
11420,1,敦賀港線,ツルガコウセン,JR北陸本線(敦賀～敦賀港),,,,136.07553333862302,35.65634920560603,14,2,"11,420","2019/2/27, 9:42 AM","2019/12/9, 7:19 AM","{敦賀,敦賀港}"
11419,1,JR七尾線,ナナオセン,JR七尾線,,,,136.79162707187504,36.88072240126652,10,0,"11,419","2019/2/27, 9:42 AM","2019/12/9, 7:19 AM","{津幡,中津幡,本津幡,能瀬,宇野気,横山,高松,免田,宝達,敷浪,南羽咋,羽咋,千路,金丸,能登部,良川,能登二宮,徳田,七尾,和倉温泉}"
11405,1,JR北陸本線(富山～直江津),ホクリクホンセン,JR北陸本線(富山～直江津),,,,137.71850056770495,37.01500893103371,9,2,"11,405","2019/2/27, 9:42 AM","2019/12/9, 7:19 AM",{}
11808,1,しまんとグリーンライン,シマントグリーンライン,JR予土線,,,,132.82238446661745,33.232871923386135,10,0,"11,808","2019/2/27, 9:42 AM","2019/12/9, 7:19 AM","{窪川,若井,家地川,打井川,土佐大正,土佐昭和,十川,半家,江川崎,西ケ方,真土,吉野生,松丸,出目,近永,深田,大内,二名,伊予宮野下,務田,北宇和島,宇和島}"
11805,1,JR鳴門線,ナルトセン,JR鳴門線,,,,134.5684284179688,34.16377798184309,13,0,"11,805","2019/2/27, 9:42 AM","2019/12/9, 7:19 AM","{鳴門,撫養,金比羅前,教会前,立道,阿波大谷,池谷}"
11803,1,よしの川ブルーライン,ヨシノガワブルーライン,JR徳島線,,,,134.15180845056943,34.04872232965597,10,0,"11,803","2019/2/27, 9:42 AM","2019/12/9, 7:19 AM","{徳島,佐古,蔵本,鮎喰,府中,石井,下浦,牛島,麻植塚,鴨島,西麻植,阿波川島,学,山瀬,阿波山川,川田,穴吹,小島,貞光,阿波半田,江口,三加茂,阿波加茂,辻,佃,阿波池田}"
11929,1,えびの高原線,エビノコウゲンセン,JR吉都線,,,,130.95640168416935,31.917243912644583,10,0,"11,929","2019/2/27, 9:42 AM","2019/12/9, 7:19 AM","{都城,日向庄内,谷頭,万ケ塚,東高崎,高崎新田,日向前田,高原,広原,小林,西小林,えびの飯野,えびの上江,えびの,京町温泉,鶴丸,吉松}"
11927,1,JR宮崎空港線,ミヤザキクウコウセン,JR宮崎空港線,,,,131.4327622910156,31.895343146073063,13,0,"11,927","2019/2/27, 9:42 AM","2019/12/9, 7:19 AM","{宮崎,南宮崎,田吉,宮崎空港}"
11926,1,JR肥薩線(吉松～隼人),ヒサツセン,JR肥薩線(吉松～隼人),,,,130.7067464617187,31.890984289007562,11,0,"11,926","2019/2/27, 9:42 AM","2019/12/9, 7:19 AM","{吉松,栗野,大隅横川,植村,霧島温泉,嘉例川,中福良,表木山,日当山,隼人}"
11924,1,三角線（あまくさみすみ線）,アマクサミスミセン,JR三角線,,,,130.5892981230469,32.69144960204074,11,0,"11,924","2019/2/27, 9:42 AM","2019/12/9, 7:19 AM","{熊本,川尻,富合,宇土,緑川,住吉,肥後長浜,網田,赤瀬,石打ダム,波多浦,三角}"
99920,239,湯前線,ユノマエセン,くま川鉄道湯前線,,,,130.88113566406253,32.23914364285702,11,0,"99,920","2019/2/27, 9:42 AM","2019/12/9, 7:19 AM","{人吉温泉,相良藩願成寺,川村,肥後西村,一武,木上,おかどめ幸福,あさぎり,東免田,公立病院前,多良木,東多良木,新鶴羽,湯前}"
11504,1,JR伊東線,イトウセン,JR伊東線,,,,139.06965506608412,35.047592333333,12,0,"11,504","2019/2/27, 9:42 AM","2019/12/9, 7:18 AM","{熱海,来宮,伊豆多賀,網代,宇佐美,伊東}"
11412,1,JR篠ノ井線,シノノイセン,JR篠ノ井線,,,,138.01727743710944,36.38422475016289,10,0,"11,412","2019/2/27, 9:42 AM","2019/12/9, 7:18 AM","{塩尻,広丘,村井,平田,南松本,松本,田沢,明科,西条,坂北,聖高原,冠着,姨捨,稲荷山,篠ノ井}"
11401,1,八ヶ岳高原線,ヤツガダケコウゲンセン,JR小海線,,,,138.43948118176434,36.0916970903097,10,0,"11,401","2019/2/27, 9:42 AM","2019/12/9, 7:18 AM","{小淵沢,甲斐小泉,甲斐大泉,清里,野辺山,信濃川上,佐久広瀬,佐久海ノ口,海尻,松原湖,小海,馬流,高岩,八千穂,海瀬,羽黒下,青沼,臼田,龍岡城,太田部,中込,滑津,北中込,岩村田,佐久平,中佐都,美里,三岡,乙女,東小諸,小諸}"
11409,1,北アルプス線,キタアルプスセン,JR大糸線,,,,137.8735087168875,36.67612787325374,9,0,"11,409","2019/2/27, 9:42 AM","2019/12/9, 7:18 AM","{松本,北松本,島内,島高松,梓橋,一日市場,中萱,南豊科,豊科,柏矢町,穂高,有明,安曇追分,細野,北細野,信濃松川,安曇沓掛,信濃常盤,南大町,信濃大町,北大町,信濃木崎,稲尾,海ノ口,簗場,ヤナバスキー場前,南神城,神城,飯森,白馬,信濃森上,白馬大池,千国,南小谷,中土,北小谷,平岩,小滝,根知,頸城大野,姫川,糸魚川}"
11408,1,JR越後線,エチゴセン,JR越後線,,,,138.83400027539062,37.62674856772203,10,0,"11,408","2019/2/27, 9:42 AM","2019/12/9, 7:18 AM","{柏崎,東柏崎,西中通,荒浜,刈羽,西山,礼拝,石地,小木ノ城,出雲崎,妙法寺,小島谷,桐原,寺泊,分水,粟生津,南吉田,吉田,北吉田,岩室,巻,越後曽根,越後赤塚,内野西が丘,内野,新潟大学前,寺尾,小針,青山,関屋,白山,新潟}"
11406,1,JR白新線,ハクシンセン,JR白新線,,,,139.19047126289058,37.92400720625345,11,0,"11,406","2019/2/27, 9:42 AM","2019/12/9, 7:18 AM","{新潟,東新潟,大形,新崎,早通,豊栄,黒山,佐々木,西新発田,新発田}"
11920,1,JR筑肥線(西唐津～伊万里),チクヒセン,JR筑肥線(西唐津～伊万里),,,,129.93973570619562,33.37129522314017,11,0,"11,920","2019/2/27, 9:42 AM","2019/12/9, 7:19 AM","{西唐津,唐津,鬼塚,山本,肥前久保,西相知,佐里,駒鳴,大川野,肥前長野,桃川,金石原,上伊万里,伊万里}"
11917,1,JR香椎線(香椎～宇美),カシイセン,JR香椎線(香椎～宇美),,,,130.47290076761794,33.61956046230867,12,0,"11,917","2019/2/27, 9:42 AM","2019/12/9, 7:19 AM","{香椎,香椎神宮,舞松原,土井,伊賀,長者原,酒殿,須恵,須恵中央,新原,宇美}"
11916,1,海の中道線,ウミノナカミチセン,JR香椎線(西戸崎～香椎),,,,130.40419308203127,33.67670942055951,12,0,"11,916","2019/2/27, 9:42 AM","2019/12/9, 7:19 AM","{西戸崎,海ノ中道,雁ノ巣,奈多,和白,香椎}"
11912,1,原田線,ハルダセン,JR筑豊本線(桂川～原田),,,,130.60913221796875,33.52416440000002,12,0,"11,912","2019/2/27, 9:42 AM","2019/12/9, 7:19 AM","{桂川,上穂波,筑前内野,筑前山家,原田}"
11911,1,福北ゆたか線(折尾～桂川),フクホクユタカセン,JR筑豊本線(折尾～桂川),,,,130.70611418554688,33.73450091343945,11,0,"11,911","2019/2/27, 9:42 AM","2019/12/9, 7:19 AM","{折尾,東水巻,中間,筑前垣生,鞍手,筑前植木,新入,直方,勝野,小竹,鯰田,浦田,新飯塚,飯塚,天道,桂川}"
11910,1,若松線,チクホウセン,JR筑豊本線(若松～折尾),,,,130.75212779362312,33.888220228939645,12,0,"11,910","2019/2/27, 9:42 AM","2019/12/9, 7:19 AM","{若松,藤ノ木,奥洞海,二島,本城,折尾}"
11908,1,福北ゆたか線,フクホクユタカセン,JR篠栗線,,,,130.5327031627637,33.619909871589044,11,0,"11,908","2019/2/27, 9:42 AM","2019/12/9, 7:19 AM","{桂川,筑前大分,九郎原,城戸南蔵院前,筑前山手,篠栗,門松,長者原,原町,柚須,吉塚,博多}"
11904,1,JR鹿児島本線(川内～鹿児島),カゴシマホンセン,JR鹿児島本線(川内～鹿児島),,,,130.36350199190565,31.653348264530063,10,0,"11,904","2019/2/27, 9:42 AM","2019/12/9, 7:19 AM","{川内,隈之城,木場茶屋,串木野,神村学園前,市来,湯之元,東市来,伊集院,薩摩松元,上伊集院,広木,鹿児島中央,鹿児島}"
11902,1,JR鹿児島本線(下関・門司港～博多),カゴシマホンセン,JR鹿児島本線(下関・門司港～博多),,,,130.6285375318413,33.836705421057076,10,0,"11,902","2019/2/27, 9:42 AM","2019/12/9, 7:19 AM","{下関,門司港,小森江,門司,小倉,西小倉,九州工大前,戸畑,枝光,スペースワールド,八幡,黒崎,陣原,折尾,水巻,遠賀川,海老津,教育大前,赤間,東郷,東福間,福間,千鳥,古賀,ししぶ,新宮中央,福工大前,九産大前,香椎,千早,箱崎,吉塚,博多}"
28001,18,東京メトロ銀座線,ギンザセン,東京メトロ銀座線,F7931D,オレンジ,,139.75720810526002,35.686460950459086,13,0,1,"2019/2/27, 9:42 AM","2019/12/9, 7:19 AM","{浅草,田原町,稲荷町,上野,上野広小路,末広町,神田,三越前,日本橋,京橋,銀座,新橋,虎ノ門,溜池山王,赤坂見附,青山一丁目,外苑前,表参道,渋谷}"
99342,119,日暮里・舎人ライナー,ニッポリ・トネリライナー,日暮里・舎人ライナー,,,,139.76949647740912,35.781825686122055,12,0,6,"2019/2/27, 9:42 AM","2019/12/9, 7:19 AM","{日暮里,西日暮里,赤土小学校前,熊野前,足立小台,扇大橋,高野,江北,西新井大師西,谷在家,舎人公園,舎人,見沼代親水公園}"
22003,12,西武有楽町線,セイブユウラクチョウセン,西武有楽町線,,,,139.6675949841308,35.74040400298963,14,0,1,"2019/2/27, 9:42 AM","2019/12/9, 7:19 AM","{小竹向原,新桜台,練馬}"
22009,12,西武西武園線,セイブセイブエンセン,西武西武園線,,,,139.45737150000002,35.76415058275417,14,0,8,"2019/2/27, 9:42 AM","2019/12/9, 7:19 AM","{東村山,西武園}"
11404,1,JR信越本線(直江津～新潟),シンエツホンセン,JR信越本線(直江津～新潟),,,,138.75954524069743,37.51108174200138,9,0,"11,404","2019/2/27, 9:42 AM","2019/12/9, 7:18 AM","{直江津,黒井,犀潟,土底浜,潟町,上下浜,柿崎,米山,笠島,青海川,鯨波,柏崎,茨目,安田,北条,越後広田,長鳥,塚山,越後岩塚,来迎寺,前川,宮内,長岡,北長岡,押切,見附,帯織,東光寺,三条,東三条,保内,加茂,羽生田,田上,矢代田,古津,新津,さつき野,荻川,亀田,越後石山,新潟}"
1006,1,上越新幹線(ガーラ湯沢支線),ジョウエツシンカンセン,上越新幹線(ガーラ湯沢支線),,,,138.80325037829584,36.9428821124426,14,0,"1,006","2019/2/27, 9:42 AM","2019/12/9, 7:19 AM",{}
11342,1,JR上越線,ジョウエツセン,JR上越線,,,,138.8924192126725,36.91538659975816,9,0,"11,342","2019/2/27, 9:42 AM","2019/12/9, 7:18 AM","{高崎,高崎問屋町,井野,新前橋,群馬総社,八木原,渋川,敷島,津久田,岩本,沼田,後閑,上牧,水上,湯檜曽,土合,土樽,越後中里,岩原スキー場前,越後湯沢,石打,大沢,上越国際スキー場前,塩沢,六日町,五日町,浦佐,八色,小出,越後堀之内,北堀之内,越後川口,小千谷,越後滝谷,宮内,長岡}"
11338,1,JR水郡線,スイグンセン,JR水郡線,,,,140.46215357133497,36.922047433178975,9,0,"11,338","2019/2/27, 9:42 AM","2019/12/9, 7:18 AM","{水戸,常陸青柳,常陸津田,後台,下菅谷,中菅谷,上菅谷,南酒出,額田,河合,谷河原,常陸太田,常陸鴻巣,瓜連,静,常陸大宮,玉川村,野上原,山方宿,中舟生,下小川,西金,上小川,袋田,常陸大子,下野宮,矢祭山,東館,南石井,磐城石井,磐城塙,近津,中豊,磐城棚倉,磐城浅川,里白石,磐城石川,野木沢,川辺沖,泉郷,川東,小塩江,谷田川,磐城守山,安積永盛,郡山}"
11334,1,JR烏山線,カラスヤマセン,JR烏山線,,,,140.06497854492181,36.65874003350967,12,0,"11,334","2019/2/27, 9:42 AM","2019/12/9, 7:18 AM","{宝積寺,下野花岡,仁井田,鴻野山,大金,小塙,滝,烏山}"
11330,1,JR久留里線,クルリセン,JR久留里線,,,,140.04649970912533,35.350677697393934,11,0,"11,330","2019/2/27, 9:42 AM","2019/12/9, 7:18 AM","{木更津,祇園,上総清川,東清川,横田,東横田,馬来田,下郡,小櫃,俵田,久留里,平山,上総松丘,上総亀山}"
11327,1,JR成田線,ナリタセン,JR成田線,,,,140.37238841518,35.86276465962149,10,0,"11,327","2019/2/27, 9:42 AM","2019/12/9, 7:18 AM","{佐倉,酒々井,成田,空港第２ビル（第２旅客ターミナル）,成田空港（第１旅客ターミナル）,久住,滑河,下総神崎,大戸,佐原,香取,水郷,小見川,笹川,下総橘,下総豊里,椎柴,松岸,銚子,我孫子,東我孫子,湖北,新木,布佐,木下,小林,安食,下総松崎}"
11325,1,JR内房線,ウチボウセン,JR内房線,,,,139.94808075585934,35.29328826834759,9,0,"11,325","2019/2/27, 9:42 AM","2019/12/9, 7:18 AM","{千葉,本千葉,蘇我,浜野,八幡宿,五井,姉ケ崎,長浦,袖ケ浦,巌根,木更津,君津,青堀,大貫,佐貫町,上総湊,竹岡,浜金谷,保田,安房勝山,岩井,富浦,那古船形,館山,九重,千倉,千歳,南三原,和田浦,江見,太海,安房鴨川}"
11324,1,JR外房線,ソトボウセン,JR外房線,,,,140.27983028045685,35.34873907407399,10,0,"11,324","2019/2/27, 9:42 AM","2019/12/9, 7:18 AM","{千葉,本千葉,蘇我,鎌取,誉田,土気,大網,永田,本納,新茂原,茂原,八積,上総一ノ宮,東浪見,太東,長者町,三門,大原,浪花,御宿,勝浦,鵜原,上総興津,行川アイランド,安房小湊,安房天津,安房鴨川}"
11312,1,JR中央線(快速),チュウオウセン,JR中央線(快速),,,,139.53798847265625,35.7001704211487,10,0,"11,312","2019/2/27, 9:42 AM","2019/12/9, 7:18 AM","{東京,神田,御茶ノ水,四ツ谷,新宿,中野,高円寺,阿佐ケ谷,荻窪,西荻窪,吉祥寺,三鷹,武蔵境,東小金井,武蔵小金井,国分寺,西国分寺,国立,立川,日野,豊田,八王子,西八王子,高尾}"
11320,1,JR常磐線(上野～取手),ジョウバンセン,JR常磐線(上野～取手),,,,139.92381250144126,35.8197193273695,11,0,5,"2019/2/27, 9:42 AM","2019/12/9, 7:18 AM","{上野,日暮里,三河島,南千住,北千住,綾瀬,亀有,金町,松戸,北松戸,馬橋,新松戸,北小金,南柏,柏,北柏,我孫子,天王台,取手}"
11308,1,JR横須賀線,ヨコスカセン,JR横須賀線,,,,139.64761859128498,35.48340539219034,10,0,9,"2019/2/27, 9:42 AM","2019/12/9, 7:18 AM","{東京,新橋,品川,西大井,武蔵小杉,新川崎,横浜,保土ケ谷,東戸塚,戸塚,大船,北鎌倉,鎌倉,逗子,東逗子,田浦,横須賀,衣笠,久里浜}"
11309,1,JR相模線,サガミセン,JR相模線,,,,139.36780165863934,35.483174930602146,11,0,10,"2019/2/27, 9:42 AM","2019/12/9, 7:18 AM","{茅ケ崎,北茅ケ崎,香川,寒川,宮山,倉見,門沢橋,社家,厚木,海老名,入谷,相武台下,下溝,原当麻,番田,上溝,南橋本,橋本}"
34002,24,阪急宝塚本線,ハンキュウタカラヅカホンセン,阪急宝塚本線,,,,135.43434710526003,34.78606113792225,12,0,"34,002","2019/2/27, 9:42 AM","2019/12/9, 7:19 AM","{大阪梅田,中津,十三,三国,庄内,服部天神,曽根,岡町,豊中,蛍池,石橋阪大前,池田,川西能勢口,雲雀丘花屋敷,山本,中山観音,売布神社,清荒神,宝塚}"
11313,1,JR中央・総武線,チュウオウ・ソウブセン,JR中央・総武緩行線,,,,139.8371552268119,35.701641362335245,10,0,11,"2019/2/27, 9:42 AM","2019/12/9, 7:18 AM","{三鷹,吉祥寺,西荻窪,荻窪,阿佐ケ谷,高円寺,中野,東中野,大久保,新宿,代々木,千駄ケ谷,信濃町,四ツ谷,市ケ谷,飯田橋,水道橋,御茶ノ水,秋葉原,浅草橋,両国,錦糸町,亀戸,平井,新小岩,小岩,市川,本八幡,下総中山,西船橋,船橋,東船橋,津田沼,幕張本郷,幕張,新検見川,稲毛,西千葉,千葉}"
11222,1,JR仙石線,センセキセン,JR仙石線,,,,141.0726418099182,38.36634215831958,11,0,"11,222","2019/2/27, 9:42 AM","2019/12/9, 7:19 AM","{あおば通,仙台,榴ケ岡,宮城野原,陸前原ノ町,苦竹,小鶴新田,福田町,陸前高砂,中野栄,多賀城,下馬,西塩釜,本塩釜,東塩釜,陸前浜田,松島海岸,高城町,手樽,陸前富山,陸前大塚,東名,野蒜,陸前小野,鹿妻,矢本,東矢本,陸前赤井,石巻あゆみ野,蛇田,陸前山下,石巻}"
11311,1,JR中央本線(東京～塩尻),チュウオウホンセン,JR中央本線(東京～塩尻),,,,138.61735796977746,35.77036733659977,9,0,12,"2019/2/27, 9:42 AM","2019/12/9, 7:18 AM","{東京,四ツ谷,新宿,吉祥寺,三鷹,国分寺,立川,日野,豊田,八王子,西八王子,高尾,相模湖,藤野,上野原,四方津,梁川,鳥沢,猿橋,大月,初狩,笹子,甲斐大和,勝沼ぶどう郷,塩山,東山梨,山梨市,春日居町,石和温泉,酒折,甲府,竜王,塩崎,韮崎,新府,穴山,日野春,長坂,小淵沢,信濃境,富士見,すずらんの里,青柳,茅野,上諏訪,下諏訪,岡谷,みどり湖,川岸,辰野,信濃川島,小野,塩尻}"
11305,1,JR武蔵野線,ムサシノセン,JR武蔵野線,,,,139.70511311944188,35.80257707692299,10,0,15,"2019/2/27, 9:42 AM","2019/12/9, 7:19 AM","{府中本町,北府中,西国分寺,新小平,新秋津,東所沢,新座,北朝霞,西浦和,武蔵浦和,南浦和,東浦和,東川口,南越谷,越谷レイクタウン,吉川,吉川美南,新三郷,三郷,南流山,新松戸,新八柱,東松戸,市川大野,船橋法典,西船橋}"
11321,1,JR埼京線,サイキョウセン,JR埼京線,,,,139.61820154055033,35.80319581571332,11,0,17,"2019/2/27, 9:42 AM","2019/12/9, 7:19 AM","{大崎,恵比寿,渋谷,新宿,池袋,板橋,十条,赤羽,北赤羽,浮間舟渡,戸田公園,戸田,北戸田,武蔵浦和,中浦和,南与野,与野本町,北与野,大宮,日進,指扇,南古谷,川越}"
11319,1,宇都宮線,ウツノミヤセン,JR東北本線,,,,139.8464030031987,36.379439240800785,9,0,19,"2019/2/27, 9:42 AM","2019/12/9, 7:19 AM","{上野,尾久,赤羽,浦和,さいたま新都心,大宮,土呂,東大宮,蓮田,白岡,新白岡,久喜,東鷲宮,栗橋,古河,野木,間々田,小山,小金井,自治医大,石橋,雀宮,宇都宮,岡本,宝積寺,氏家,蒲須坂,片岡,矢板,野崎,西那須野,那須塩原,黒磯}"
11314,1,JR総武本線,ソウブホンセン,JR総武本線,,,,140.25466124558875,35.68790263001846,9,0,20,"2019/2/27, 9:42 AM","2019/12/9, 7:19 AM","{東京,新日本橋,馬喰町,錦糸町,新小岩,市川,船橋,津田沼,稲毛,千葉,東千葉,都賀,四街道,物井,佐倉,南酒々井,榎戸,八街,日向,成東,松尾,横芝,飯倉,八日市場,干潟,旭,飯岡,倉橋,猿田,松岸,銚子}"
11328,1,JR成田エクスプレス,ナリタエクスプレス,JR成田エクスプレス,,,,139.7571982434863,35.692120917755446,9,0,22,"2019/2/27, 9:42 AM","2019/12/9, 7:19 AM","{大船,戸塚,横浜,武蔵小杉,大宮,池袋,新宿,高尾,八王子,立川,国分寺,三鷹,吉祥寺,渋谷,品川,東京,千葉,四街道,成田,空港第２ビル（第２旅客ターミナル）,成田空港（第１旅客ターミナル）}"
11333,1,JR湘南新宿ライン,ショウナンシンジュクライン,JR湘南新宿ライン,,,,139.62294366432627,35.65739974071942,10,0,23,"2019/2/27, 9:42 AM","2019/12/9, 7:19 AM","{大宮,浦和,赤羽,池袋,新宿,渋谷,恵比寿,大崎,西大井,武蔵小杉,新川崎,横浜,保土ケ谷,東戸塚,戸塚,大船}"
11230,1,JR常磐線(いわき～仙台),ジョウバンセン,JR常磐線(いわき～仙台),,,,140.9334199303762,37.66155605255589,9,0,"11,230","2019/2/27, 9:42 AM","2019/12/9, 7:19 AM","{いわき,草野,四ツ倉,久ノ浜,末続,広野,Jヴィレッジ,木戸,竜田,富岡,夜ノ森,大野,双葉,浪江,桃内,小高,磐城太田,原ノ町,鹿島,日立木,相馬,駒ケ嶺,新地,坂元,山下,浜吉田,亘理,逢隈,岩沼,館腰,名取,南仙台,太子堂,長町,仙台}"
11229,1,JR常磐線(取手～いわき),ジョウバンセン,JR常磐線(取手～いわき),,,,140.5188743525713,36.51900405922109,9,0,"11,229","2019/2/27, 9:42 AM","2019/12/9, 7:19 AM","{取手,藤代,佐貫,牛久,ひたち野うしく,荒川沖,土浦,神立,高浜,石岡,羽鳥,岩間,友部,内原,赤塚,偕楽園,水戸,勝田,佐和,東海,大甕,常陸多賀,日立,小木津,十王,高萩,南中郷,磯原,大津港,勿来,植田,泉,湯本,内郷,いわき}"
11227,1,JR只見線,タダミセン,JR只見線,,,,139.44780738877625,37.39176461731695,9,0,"11,227","2019/2/27, 9:42 AM","2019/12/9, 7:19 AM","{会津若松,七日町,西若松,会津本郷,会津高田,根岸,新鶴,若宮,会津坂下,塔寺,会津坂本,会津柳津,郷戸,滝谷,会津桧原,会津西方,会津宮下,早戸,会津水沼,会津中川,会津川口,本名,会津越川,会津横田,会津大塩,会津塩沢,会津蒲生,只見,田子倉,大白川,柿ノ木,入広瀬,上条,越後須原,魚沼田中,越後広瀬,藪神,小出}"
11226,1,森と水とロマンの鉄道,モリトミズトロマンノテツドウ,JR磐越西線(森と水とロマンの鉄道),,,,139.479249359375,37.686232458284735,9,0,"11,226","2019/2/27, 9:42 AM","2019/12/9, 7:19 AM","{会津若松,堂島,笈川,塩川,姥堂,会津豊川,喜多方,山都,荻野,尾登,野沢,上野尻,徳沢,豊実,日出谷,鹿瀬,津川,三川,五十島,東下条,咲花,馬下,猿和田,五泉,北五泉,新関,東新津,新津}"
11223,1,JR石巻線,イシノマキセン,JR石巻線,,,,141.2522991796875,38.4868684902762,11,0,"11,223","2019/2/27, 9:42 AM","2019/12/9, 7:19 AM","{小牛田,上涌谷,涌谷,前谷地,佳景山,鹿又,曽波神,石巻,陸前稲井,渡波,万石浦,沢田,浦宿,女川}"
11615,1,JR山陰本線(園部～豊岡),サンインホンセン,JR山陰本線(園部～豊岡),,,,135.08868444921882,35.326094572618075,10,0,"11,615","2019/2/27, 9:42 AM","2019/12/9, 7:19 AM","{園部,船岡,日吉,鍼灸大学前,胡麻,下山,和知,安栖里,立木,山家,綾部,高津,石原,福知山,上川口,下夜久野,上夜久野,梁瀬,和田山,養父,八鹿,江原,国府,豊岡}"
11221,1,奥の細道湯けむりライン,オクノホソミチユケムリライン,JR陸羽東線,,,,140.68130433846568,38.7300397194844,10,0,"11,221","2019/2/27, 9:42 AM","2019/12/9, 7:19 AM","{小牛田,北浦,陸前谷地,古川,塚目,西古川,東大崎,西大崎,岩出山,有備館,上野目,池月,川渡温泉,鳴子御殿湯,鳴子温泉,中山平温泉,堺田,赤倉温泉,立小路,最上,大堀,鵜杉,瀬見温泉,東長沢,長沢,南新庄,新庄}"
11218,1,フルーツライン左沢線,フルーツラインアテラザワセン,JR左沢線,,,,140.28080951725588,38.33565072948376,12,0,"11,218","2019/2/27, 9:42 AM","2019/12/9, 7:19 AM","{山形,北山形,東金井,羽前山辺,羽前金沢,羽前長崎,南寒河江,寒河江,西寒河江,羽前高松,柴橋,左沢}"
11217,1,JR仙山線,センザンセン,JR仙山線,,,,140.59961861487568,38.31470034676915,10,0,"11,217","2019/2/27, 9:42 AM","2019/12/9, 7:19 AM","{仙台,東照宮,北仙台,北山,東北福祉大前,国見,葛岡,陸前落合,愛子,陸前白沢,熊ケ根,西仙台ハイランド,作並,八ツ森,奥新川,面白山高原,山寺,高瀬,楯山,羽前千歳,北山形,山形}"
11216,1,山形線,ヤマガタセン,JR奥羽本線(福島～新庄),,,,140.2833536760088,38.30771536001518,9,0,"11,216","2019/2/27, 9:42 AM","2019/12/9, 7:19 AM","{福島,笹木野,庭坂,赤岩,板谷,峠,大沢,関根,米沢,置賜,高畠,赤湯,中川,羽前中山,かみのやま温泉,茂吉記念館前,蔵王,山形,北山形,羽前千歳,南出羽,漆山,高擶,天童南,天童,乱川,神町,さくらんぼ東根,東根,村山,袖崎,大石田,北大石田,芦沢,舟形,新庄}"
11214,1,JR羽越本線,ウエツホンセン,JR羽越本線,,,,139.76178034192378,38.73294117260258,8,0,"11,214","2019/2/27, 9:42 AM","2019/12/9, 7:19 AM","{新津,京ケ瀬,水原,神山,月岡,中浦,新発田,加治,金塚,中条,平木田,坂町,平林,岩船町,村上,間島,越後早川,桑川,今川,越後寒川,勝木,府屋,鼠ケ関,小岩川,あつみ温泉,五十川,小波渡,三瀬,羽前水沢,羽前大山,鶴岡,藤島,西袋,余目,北余目,砂越,東酒田,酒田,本楯,南鳥海,遊佐,吹浦,女鹿,小砂川,上浜,象潟,金浦,仁賀保,西目,羽後本荘,羽後岩谷,折渡,羽後亀田,岩城みなと,道川,下浜,桂根,新屋,羽後牛島,秋田}"
11212,1,十和田八幡平四季彩ライン,トワダハチマンタイシキサイライン,JR花輪線,,,,140.84534883051435,40.13373142935388,10,0,"11,212","2019/2/27, 9:42 AM","2019/12/9, 7:19 AM","{好摩,東大更,大更,平館,北森,松尾八幡平,安比高原,赤坂田,小屋の畑,荒屋新町,横間,田山,兄畑,湯瀬温泉,八幡平,陸中大里,鹿角花輪,柴平,十和田南,末広,土深井,沢尻,十二所,大滝温泉,扇田,東大館,大館}"
11210,1,JR北上線,キタカミセン,JR北上線,,,,140.8466239225637,39.30471878961481,10,0,"11,210","2019/2/27, 9:42 AM","2019/12/9, 7:19 AM","{北上,柳原,江釣子,藤根,立川目,横川目,岩沢,和賀仙人,ゆだ錦秋湖,ほっとゆだ,ゆだ高原,黒沢,小松川,平石,相野々,矢美津,横手}"
11209,1,銀河ドリームライン釜石線,ギンガドリームラインカマイシセン,JR釜石線,,,,141.52791235221684,39.326364547483045,10,0,"11,209","2019/2/27, 9:42 AM","2019/12/9, 7:19 AM","{花巻,似内,新花巻,小山田,土沢,晴山,岩根橋,宮守,柏木平,鱒沢,荒谷前,岩手二日町,綾織,遠野,青笹,岩手上郷,平倉,足ケ瀬,上有住,陸中大橋,洞泉,松倉,小佐野,釜石}"
11207,1,JR岩泉線,イワイズミセン,JR岩泉線,,,,141.7110906929231,39.75256666187472,11,2,"11,207","2019/2/27, 9:42 AM","2019/12/9, 7:19 AM","{茂市,岩手刈屋,中里,岩手和井内,押角,岩手大川,浅内,二升石,岩泉}"
11206,1,JR八戸線,ハチノヘセン,JR八戸線,,,,141.70193442265622,40.40264308249763,10,0,"11,206","2019/2/27, 9:42 AM","2019/12/9, 7:19 AM","{八戸,長苗代,本八戸,小中野,陸奥湊,白銀,鮫,プレイピア白浜,陸奥白浜,種差海岸,大久喜,金浜,大蛇,階上,角の浜,平内,種市,玉川,宿戸,陸中八木,有家,陸中中野,侍浜,陸中夏井,久慈}"
11204,1,JR五能線,ゴノウセン,JR五能線,,,,140.15359998564747,40.62248823623596,9,0,"11,204","2019/2/27, 9:42 AM","2019/12/9, 7:19 AM","{東能代,能代,向能代,北能代,鳥形,沢目,東八森,八森,滝ノ間,あきた白神,岩館,大間越,白神岳登山口,松神,十二湖,陸奥岩崎,陸奥沢辺,ウェスパ椿山,艫作,横磯,深浦,広戸,追良瀬,驫木,風合瀬,大戸瀬,千畳敷,北金ケ沢,陸奥柳田,陸奥赤石,鰺ケ沢,鳴沢,越水,陸奥森田,中田,木造,五所川原,陸奥鶴田,鶴泊,板柳,林崎,藤崎,川部}"
99614,197,北大阪急行電鉄,キタオオサカキュウコウデンテツ,北大阪急行電鉄,,,,135.49546160449222,34.78992723920358,13,0,"99,614","2019/2/27, 9:42 AM","2019/12/9, 7:19 AM","{千里中央,桃山台,緑地公園,江坂}"
11414,1,JR飯田線(天竜峡～辰野),イイダセン,JR飯田線(天竜峡～辰野),,,,137.89863526278498,35.75990218108237,10,0,"11,414","2019/2/27, 9:42 AM","2019/12/9, 7:19 AM","{天竜峡,川路,時又,駄科,毛賀,伊那八幡,下山村,鼎,切石,飯田,桜町,伊那上郷,元善光寺,下市田,市田,下平,山吹,伊那大島,上片桐,伊那田島,高遠原,七久保,伊那本郷,飯島,田切,伊那福岡,小町屋,駒ケ根,大田切,宮田,赤木,沢渡,下島,伊那市,伊那北,田畑,北殿,木ノ下,伊那松島,沢,羽場,伊那新町,宮木,辰野}"
1005,1,上越新幹線,ジョウエツシンカンセン,上越新幹線,,,,139.12148795051746,36.798564726932156,8,0,"1,005","2019/2/27, 9:42 AM","2019/12/9, 7:19 AM",{}
11231,1,JR東北本線(黒磯～利府・盛岡),トウホクホンセン,JR東北本線(黒磯～利府・盛岡),,,,140.8981248701275,38.46142403678101,8,0,"11,202","2019/2/27, 9:42 AM","2019/12/9, 7:19 AM","{黒磯,高久,黒田原,豊原,白坂,新白河,白河,久田野,泉崎,矢吹,鏡石,須賀川,安積永盛,郡山,日和田,五百川,本宮,杉田,二本松,安達,松川,金谷川,南福島,福島,東福島,伊達,桑折,藤田,貝田,越河,白石,東白石,北白川,大河原,船岡,槻木,岩沼,館腰,名取,南仙台,太子堂,長町,仙台,東仙台,岩切,新利府,利府,陸前山王,国府多賀城,塩釜,松島,愛宕,品井沼,鹿島台,松山町,小牛田,田尻,瀬峰,梅ケ沢,新田,石越,油島,花泉,清水原,有壁,一ノ関,山ノ目,平泉,前沢,陸中折居,水沢,金ケ崎,六原,北上,村崎野,花巻,花巻空港,石鳥谷,日詰,紫波中央,古館,矢幅,岩手飯岡,仙北町,盛岡}"
11202,1,JR奥羽本線(新庄～青森),オウウホンセン,JR奥羽本線(新庄～青森),,,,140.44271734754,39.922270662793785,8,0,"11,202","2019/2/27, 9:42 AM","2019/12/9, 7:19 AM","{新庄,泉田,羽前豊里,真室川,釜淵,大滝,及位,院内,横堀,三関,上湯沢,湯沢,下湯沢,十文字,醍醐,柳田,横手,後三年,飯詰,大曲,神宮寺,刈和野,峰吉川,羽後境,大張野,和田,四ツ小屋,秋田,土崎,上飯島,追分,大久保,羽後飯塚,井川さくら,八郎潟,鯉川,鹿渡,森岳,北金岡,東能代,鶴形,富根,二ツ井,前山,鷹ノ巣,糠沢,早口,下川沿,大館,白沢,陣場,津軽湯の沢,碇ケ関,長峰,大鰐温泉,石川,弘前,撫牛子,川部,北常盤,浪岡,大釈迦,鶴ケ坂,津軽新城,新青森,青森}"
11510,1,JR紀勢本線,キセイホンセン,JR紀勢本線,,,,136.28726192744557,34.321543953291645,9,0,"11,510","2019/2/27, 9:42 AM","2019/12/9, 7:19 AM","{亀山,下庄,一身田,津,阿漕,高茶屋,六軒,松阪,徳和,多気,相可,佐奈,栃原,川添,三瀬谷,滝原,阿曽,伊勢柏崎,大内山,梅ケ谷,紀伊長島,三野瀬,船津,相賀,尾鷲,大曽根浦,九鬼,三木里,賀田,二木島,新鹿,波田須,大泊,熊野市,有井,神志山,紀伊市木,阿田和,紀伊井田,鵜殿,新宮}"
11508,1,JR関西本線(名古屋～亀山),カンサイホンセン,JR関西本線(名古屋～亀山),,,,136.63931487543618,35.03333933439648,10,0,"11,508","2019/2/27, 9:42 AM","2019/12/9, 7:19 AM","{名古屋,八田,春田,蟹江,永和,弥富,長島,桑名,朝日,富田,富田浜,四日市,南四日市,河原田,河曲,加佐登,井田川,亀山}"
11503,1,JR東海道本線(岐阜～美濃赤坂・米原),トウカイドウホンセン,JR東海道本線(岐阜～美濃赤坂・米原),,,,136.5281548346387,35.36362897450484,10,0,"11,503","2019/2/27, 9:42 AM","2019/12/9, 7:19 AM","{岐阜,西岐阜,穂積,大垣,荒尾,美濃赤坂,垂井,関ケ原,柏原,近江長岡,醒ケ井,米原}"
11303,1,JR南武線,ナンブセン,JR南武線,,,,139.5621831285025,35.62126801796464,11,0,6,"2019/2/27, 9:42 AM","2019/12/9, 7:19 AM","{川崎,尻手,矢向,鹿島田,平間,向河原,武蔵小杉,武蔵中原,武蔵新城,武蔵溝ノ口,津田山,久地,宿河原,登戸,中野島,稲田堤,矢野口,稲城長沼,南多摩,府中本町,分倍河原,西府,谷保,矢川,西国立,立川,八丁畷,川崎新町,小田栄,浜川崎}"
11505,1,JR御殿場線,ゴテンバセン,JR御殿場線,,,,139.03314251228778,35.22246076820866,11,0,25,"2019/2/27, 9:42 AM","2019/12/9, 7:19 AM","{国府津,下曽我,上大井,相模金子,松田,東山北,山北,谷峨,駿河小山,足柄,御殿場,南御殿場,富士岡,岩波,裾野,長泉なめり,下土狩,大岡,沼津}"
11502,1,JR東海道本線(浜松～岐阜),トウカイドウホンセン,JR東海道本線(浜松～岐阜),,,,137.1291849678937,35.04642182848142,9,0,"11,502","2019/2/27, 9:42 AM","2019/12/9, 7:19 AM","{浜松,高塚,舞阪,弁天島,新居町,鷲津,新所原,二川,豊橋,西小坂井,愛知御津,三河大塚,三河三谷,蒲郡,三河塩津,三ケ根,幸田,相見,岡崎,西岡崎,安城,三河安城,東刈谷,野田新町,刈谷,逢妻,大府,共和,南大高,大高,笠寺,熱田,金山,尾頭橋,名古屋,枇杷島,清洲,稲沢,尾張一宮,木曽川,岐阜}"
11501,1,JR東海道本線(熱海～浜松),トウカイドウホンセン,JR東海道本線(熱海～浜松),,,,138.38880977711756,34.949097324956746,9,0,"11,501","2019/2/27, 9:42 AM","2019/12/9, 7:19 AM","{熱海,函南,三島,沼津,片浜,原,東田子の浦,吉原,富士,富士川,新蒲原,蒲原,由比,興津,清水,草薙,東静岡,静岡,安倍川,用宗,焼津,西焼津,藤枝,六合,島田,金谷,菊川,掛川,愛野,袋井,磐田,豊田町,天竜川,浜松}"
11416,1,JR高山本線,タカヤマホンセン,JR高山本線,,,,137.1437386815494,36.035069783538795,9,0,"11,416","2019/2/27, 9:42 AM","2019/12/9, 7:19 AM","{岐阜,長森,那加,蘇原,各務ケ原,鵜沼,坂祝,美濃太田,古井,中川辺,下麻生,上麻生,白川口,下油井,飛騨金山,焼石,下呂,禅昌寺,飛騨萩原,上呂,飛騨宮田,飛騨小坂,渚,久々野,飛騨一ノ宮,高山,上枝,飛騨国府,飛騨古川,杉崎,飛騨細江,角川,坂上,打保,杉原,猪谷,楡原,笹津,東八尾,越中八尾,千里,速星,婦中鵜坂,西富山,富山}"
34004,24,阪急今津線,ハンキュウイマヅセン,阪急今津線,,,,135.35466527514654,34.7706920461437,13,0,"34,004","2019/2/27, 9:42 AM","2019/12/9, 7:19 AM","{今津,阪神国道,西宮北口,門戸厄神,甲東園,仁川,小林,逆瀬川,宝塚南口,宝塚}"
11411,1,JR中央本線(名古屋～塩尻),チュウオウホンセン,JR中央本線(名古屋～塩尻),,,,137.46849197656252,35.66247110005526,9,0,"11,411","2019/2/27, 9:42 AM","2019/12/9, 7:19 AM","{名古屋,金山,鶴舞,千種,大曽根,新守山,勝川,春日井,神領,高蔵寺,定光寺,古虎渓,多治見,土岐市,瑞浪,釜戸,武並,恵那,美乃坂本,中津川,落合川,坂下,田立,南木曽,十二兼,野尻,大桑,須原,倉本,上松,木曽福島,原野,宮ノ越,藪原,奈良井,木曽平沢,贄川,日出塩,洗馬,塩尻}"
11402,1,JR身延線,ミノブセン,JR身延線,,,,138.53239703334873,35.39216323856454,10,0,"11,402","2019/2/27, 9:42 AM","2019/12/9, 7:19 AM","{富士,柚木,竪堀,入山瀬,富士根,源道寺,富士宮,西富士宮,沼久保,芝川,稲子,十島,井出,寄畑,内船,甲斐大島,身延,塩之沢,波高島,下部温泉,甲斐常葉,市ノ瀬,久那土,甲斐岩間,落居,鰍沢口,市川大門,市川本町,芦川,甲斐上野,東花輪,小井川,常永,国母,甲斐住吉,南甲府,善光寺,金手,甲府}"
11723,1,JR小野田線,オノダセン,JR小野田線,,,,131.19368612434562,33.97855544704834,12,0,"11,723","2019/2/27, 9:42 AM","2019/12/9, 7:19 AM","{宇部新川,居能,妻崎,長門長沢,雀田,小野田港,南小野田,南中川,目出,小野田,浜河内,長門本山}"
11721,1,JR宇部線,ウベセン,JR宇部線,,,,131.30267582009435,34.01935294649804,11,0,"11,721","2019/2/27, 9:42 AM","2019/12/9, 7:19 AM","{新山口,上嘉川,深溝,周防佐山,岩倉,阿知須,岐波,丸尾,床波,常盤,草江,宇部岬,東新川,琴芝,宇部新川,居能,岩鼻,宇部}"
11720,1,JR福塩線,フクエンセン,JR福塩線,,,,133.12978408112315,34.63826629435402,10,0,"11,720","2019/2/27, 9:42 AM","2019/12/9, 7:19 AM","{福山,備後本庄,横尾,神辺,湯田村,道上,万能倉,駅家,近田,戸手,上戸手,新市,高木,鵜飼,府中,下川辺,中畑,河佐,備後三川,備後矢野,上下,甲奴,梶田,備後安田,吉舎,三良坂,塩町,神杉,八次,三次}"
11716,1,JR呉線,クレセン,JR呉線,,,,132.77973932812506,34.38727695792693,10,0,"11,716","2019/2/27, 9:42 AM","2019/12/9, 7:19 AM","{糸崎,三原,須波,安芸幸崎,忠海,安芸長浜,大乗,竹原,吉名,安芸津,風早,安浦,安登,安芸川尻,仁方,広,新広,安芸阿賀,呉,川原石,吉浦,かるが浜,天応,呉ポートピア,小屋浦,水尻,坂,矢野,海田市,向洋,天神川,広島}"
11714,1,JR芸備線,ゲイビセン,JR芸備線,,,,132.92164288638128,34.77393016298861,9,0,"11,714","2019/2/27, 9:42 AM","2019/12/9, 7:19 AM","{新見,布原,備中神代,坂根,市岡,矢神,野馳,東城,備後八幡,内名,小奴可,道後山,備後落合,比婆山,備後西城,平子,高,備後庄原,備後三日市,七塚,山ノ内,下和知,塩町,神杉,八次,三次,西三次,志和地,上川立,甲立,吉田口,向原,井原市,志和口,上三田,中三田,白木山,狩留家,上深川,中深川,下深川,玖村,安芸矢口,戸坂,矢賀,広島}"
11710,1,瀬戸大橋線,セトオオハシセン,JR本四備讃線,,,,133.80943996289056,34.45427589348771,11,0,"11,710","2019/2/27, 9:42 AM","2019/12/9, 7:19 AM","{茶屋町,植松,木見,上の町,児島,宇多津}"
11709,1,JR宇野線,ウノセン,JR宇野線,,,,133.91319936002935,34.575841133333,12,0,"11,709","2019/2/27, 9:42 AM","2019/12/9, 7:19 AM","{岡山,大元,備前西市,妹尾,備中箕島,早島,久々原,茶屋町,彦崎,備前片岡,迫川,常山,八浜,備前田井,宇野}"
11708,1,JR山口線,ヤマグチセン,JR山口線,,,,131.47348476743718,34.34664277172911,10,0,"11,708","2019/2/27, 9:42 AM","2019/12/9, 7:19 AM","{新山口,周防下郷,上郷,仁保津,大歳,矢原,湯田温泉,山口,上山口,宮野,仁保,篠目,長門峡,渡川,三谷,名草,地福,鍋倉,徳佐,船平山,津和野,青野山,日原,青原,東青原,石見横田,本俣賀,益田}"
11706,1,JR木次線,キスキセン,JR木次線,,,,133.0214796323762,35.19925146242539,11,0,"11,706","2019/2/27, 9:42 AM","2019/12/9, 7:19 AM","{宍道,南宍道,加茂中,幡屋,出雲大東,南大東,木次,日登,下久野,出雲八代,出雲三成,亀嵩,出雲横田,八川,出雲坂根,三井野原,油木,備後落合}"
11705,1,JR境線,サカイセン,JR境線,,,,133.26253975683596,35.48805798426352,12,0,"11,705","2019/2/27, 9:42 AM","2019/12/9, 7:19 AM","{米子,博労町,富士見町,後藤,三本松口,河崎口,弓ケ浜,和田浜,大篠津町,米子空港,中浜,高松町,余子,上道,馬場崎町,境港}"
11703,1,JR伯備線,ハクビセン,JR伯備線,,,,133.4956230323162,35.05328907628887,9,0,"11,703","2019/2/27, 9:42 AM","2019/12/9, 7:19 AM","{岡山,北長瀬,庭瀬,中庄,倉敷,清音,総社,豪渓,日羽,美袋,備中広瀬,備中高梁,木野山,備中川面,方谷,井倉,石蟹,新見,備中神代,足立,新郷,上石見,生山,上菅,黒坂,根雨,武庫,江尾,伯耆溝口,岸本,伯耆大山,東山公園,米子}"
11702,1,JR山陰本線(益田～下関),サンインホンセン,JR山陰本線(益田～下関),,,,131.27266657109374,34.359406605350436,9,0,"11,702","2019/2/27, 9:42 AM","2019/12/9, 7:19 AM","{益田,戸田小浜,飯浦,江崎,須佐,宇田郷,木与,奈古,長門大井,越ケ浜,東萩,萩,玉江,三見,飯井,長門三隅,長門市,黄波戸,長門古市,人丸,伊上,長門粟野,阿川,特牛,滝部,長門二見,宇賀本郷,湯玉,小串,川棚温泉,黒井村,梅ケ峠,吉見,福江,安岡,梶栗郷台地,綾羅木,幡生,下関,門司}"
1004,1,東北新幹線,トウホクシンカンセン,東北新幹線,,,,140.76319219429,38.27426693928412,7,0,"1,004","2019/2/27, 9:42 AM","2019/12/9, 7:19 AM",{}
11701,1,JR山陰本線(米子～益田),サンインホンセン,JR山陰本線(米子～益田),,,,132.56106754653,35.207310237832765,9,0,"11,701","2019/2/27, 9:42 AM","2019/12/9, 7:19 AM","{米子,安来,荒島,揖屋,東松江,松江,乃木,玉造温泉,来待,宍道,荘原,直江,出雲市,西出雲,出雲神西,江南,小田,田儀,波根,久手,大田市,静間,五十猛,仁万,馬路,湯里,温泉津,石見福光,黒松,浅利,江津,都野津,敬川,波子,久代,下府,浜田,西浜田,周布,折居,三保三隅,岡見,鎌手,石見津田,益田}"
11639,1,きのくに線,キノクニセン,JR紀勢本線(新宮～和歌山),,,,135.42717545992627,33.8318362763193,9,0,"11,639","2019/2/27, 9:42 AM","2019/12/9, 7:19 AM","{新宮,三輪崎,紀伊佐野,宇久井,那智,紀伊天満,紀伊勝浦,湯川,太地,下里,紀伊浦神,紀伊田原,古座,紀伊姫,串本,紀伊有田,田並,田子,和深,江住,見老津,周参見,紀伊日置,椿,紀伊富田,白浜,朝来,紀伊新庄,紀伊田辺,芳養,南部,岩代,切目,印南,稲原,和佐,道成寺,御坊,紀伊内原,紀伊由良,広川ビーチ,湯浅,藤並,紀伊宮原,箕島,初島,下津,加茂郷,冷水浦,海南,黒江,紀三井寺,宮前,和歌山}"
11636,1,JR和歌山線,ワカヤマセン,JR和歌山線,,,,135.55708161653308,34.36363683433038,10,0,"11,636","2019/2/27, 9:42 AM","2019/12/9, 7:19 AM","{王寺,畠田,志都美,香芝,ＪＲ五位堂,高田,大和新庄,御所,玉手,掖上,吉野口,北宇智,五条,大和二見,隅田,下兵庫,橋本,紀伊山田,高野口,中飯降,妙寺,大谷,笠田,西笠田,名手,粉河,紀伊長田,打田,下井阪,岩出,船戸,紀伊小倉,布施屋,千旦,田井ノ瀬,和歌山}"
11634,1,JR姫新線(佐用～新見),キシンセン,JR姫新線(佐用～新見),,,,133.88053953968756,35.05024080385127,10,0,"11,634","2019/2/27, 9:42 AM","2019/12/9, 7:19 AM","{佐用,上月,美作土居,美作江見,楢原,林野,勝間田,西勝間田,美作大崎,東津山,津山,院庄,美作千代,坪井,美作追分,美作落合,古見,久世,中国勝山,月田,富原,刑部,丹治部,岩山,新見}"
11632,1,JR加古川線,カコガワセン,JR加古川線,,,,134.95252260319342,34.937080097765715,11,0,"11,632","2019/2/27, 9:42 AM","2019/12/9, 7:19 AM","{加古川,日岡,神野,厄神,市場,小野町,粟生,河合西,青野ケ原,社町,滝野,滝,西脇市,新西脇,比延,日本へそ公園,黒田庄,本黒田,船町口,久下村,谷川}"
11631,1,JR赤穂線,アコウセン,JR赤穂線,,,,134.19749321945756,34.74727447707276,10,0,"11,631","2019/2/27, 9:42 AM","2019/12/9, 7:19 AM","{相生,西相生,坂越,播州赤穂,天和,備前福河,寒河,日生,伊里,備前片上,西片上,伊部,香登,長船,邑久,大富,西大寺,大多羅,東岡山,高島,西川原,岡山}"
11629,1,JR宝塚線,タカラヅカセン,JR福知山線(新大阪～篠山口),,,,135.34443493104754,34.869892901767784,10,0,"11,629","2019/2/27, 9:42 AM","2019/12/9, 7:19 AM","{新大阪,大阪,尼崎,塚口,猪名寺,伊丹,北伊丹,川西池田,中山寺,宝塚,生瀬,西宮名塩,武田尾,道場,三田,新三田,広野,相野,藍本,草野,古市,南矢代,篠山口}"
11626,1,阪和線(天王寺～和歌山),ハンワセン,阪和線(天王寺～和歌山),,,,135.40119375346126,34.461540982279736,10,0,"11,626","2019/2/27, 9:42 AM","2019/12/9, 7:19 AM","{天王寺,美章園,南田辺,鶴ケ丘,長居,我孫子町,杉本町,浅香,堺市,三国ケ丘,百舌鳥,上野芝,津久野,鳳,富木,北信太,信太山,和泉府中,久米田,下松,東岸和田,東貝塚,和泉橋本,東佐野,熊取,日根野,長滝,新家,和泉砂川,和泉鳥取,山中渓,紀伊,六十谷,紀伊中ノ島,和歌山}"
11623,1,大阪環状線,オオサカカンジョウセン,大阪環状線,,,,135.50218918654707,34.6815414311555,13,0,"11,623","2019/2/27, 9:42 AM","2019/12/9, 7:19 AM","{天王寺,新今宮,今宮,芦原橋,大正,弁天町,西九条,野田,福島,大阪,天満,桜ノ宮,京橋,大阪城公園,森ノ宮,玉造,鶴橋,桃谷,寺田町}"
11622,1,JR舞鶴線,マイヅルセン,JR舞鶴線,,,,135.27931377256505,35.36774423769479,11,0,"11,622","2019/2/27, 9:42 AM","2019/12/9, 7:19 AM","{福知山,石原,高津,綾部,淵垣,梅迫,真倉,西舞鶴,東舞鶴}"
11618,1,奈良線,ナラセン,奈良線,,,,135.78643415866622,34.83402323095908,11,0,"11,618","2019/2/27, 9:42 AM","2019/12/9, 7:19 AM","{京都,東福寺,稲荷,ＪＲ藤森,桃山,六地蔵,木幡,黄檗,宇治,ＪＲ小倉,新田,城陽,長池,山城青谷,山城多賀,玉水,棚倉,上狛,木津,平城山,奈良}"
33006,23,京阪石山坂本線,ケイハンイシヤマサカモトセン,京阪石山坂本線,,,,135.87368751320878,35.02135481042166,12,0,"33,006","2019/2/27, 9:42 AM","2019/12/9, 7:19 AM","{石山寺,唐橋前,京阪石山,粟津,瓦ヶ浜,中ノ庄,膳所本町,錦,京阪膳所,石場,島ノ関,びわ湖浜大津,三井寺,大津市役所前,京阪大津京,近江神宮前,南滋賀,滋賀里,穴太,松ノ馬場,坂本比叡山口}"
11616,1,JR山陰本線(豊岡～米子),サンインホンセン,JR山陰本線(豊岡～米子),,,,134.02090215811245,35.52182860276672,9,0,"11,616","2019/2/27, 9:42 AM","2019/12/9, 7:19 AM","{豊岡,玄武洞,城崎温泉,竹野,きりはまビーチ,佐津,柴山,香住,鎧,餘部,久谷,浜坂,諸寄,居組,東浜,岩美,大岩,福部,鳥取,湖山,鳥取大学前,末恒,宝木,浜村,青谷,泊,松崎,倉吉,下北条,由良,浦安,八橋,赤碕,中山口,下市,御来屋,名和,大山口,淀江,伯耆大山,東山公園,米子}"
1002,1,東海道新幹線,トウカイドウシンカンセン,東海道新幹線,,,,137.72148868198997,35.144121935482794,7,0,"1,002","2019/2/27, 9:42 AM","2019/12/9, 7:19 AM",{}
11612,1,JR山陽本線(岩国～門司),サンヨウホンセン,JR山陽本線(岩国～門司),,,,131.60634280321005,34.07166445090378,9,0,"11,612","2019/2/27, 9:42 AM","2019/12/9, 7:19 AM","{岩国,南岩国,藤生,通津,由宇,神代,大畠,柳井港,柳井,田布施,岩田,島田,光,下松,櫛ケ浜,徳山,新南陽,福川,戸田,富海,防府,大道,四辻,新山口,嘉川,本由良,厚東,宇部,小野田,厚狭,埴生,小月,長府,新下関,幡生,下関,門司}"
11611,1,JR山陽本線(三原～岩国),サンヨウホンセン,JR山陽本線(三原～岩国),,,,132.54979970851502,34.3865014014232,10,0,"11,611","2019/2/27, 9:42 AM","2019/12/9, 7:19 AM","{三原,本郷,河内,入野,白市,西高屋,西条,寺家,八本松,瀬野,中野東,安芸中野,海田市,向洋,天神川,広島,新白島,横川,西広島,新井口,五日市,廿日市,宮内串戸,阿品,宮島口,前空,大野浦,玖波,大竹,和木,岩国}"
11609,1,JR山陽本線(姫路～岡山),サンヨウホンセン,JR山陽本線(姫路～岡山),,,,134.24621069356817,34.81352155727211,10,0,"11,609","2019/2/27, 9:42 AM","2019/12/9, 7:19 AM","{姫路,英賀保,はりま勝原,網干,竜野,相生,有年,上郡,三石,吉永,和気,熊山,万富,瀬戸,上道,東岡山,高島,西川原,岡山}"
11607,1,大和路線,ヤマトジセン,JR関西本線(加茂～ＪＲ難波),,,,135.67741585635565,34.650433785558754,11,0,"11,607","2019/2/27, 9:42 AM","2019/12/9, 7:19 AM","{加茂,木津,平城山,奈良,郡山,大和小泉,法隆寺,王寺,三郷,河内堅上,高井田,柏原,志紀,八尾,久宝寺,加美,平野,東部市場前,天王寺,新今宮,今宮,ＪＲ難波}"
11605,1,JR湖西線,コセイセン,JR湖西線,,,,135.9648814007494,35.24644582567938,10,0,"11,605","2019/2/27, 9:42 AM","2019/12/9, 7:19 AM","{京都,山科,大津京,唐崎,比叡山坂本,おごと温泉,堅田,小野,和邇,蓬莱,志賀,比良,近江舞子,北小松,近江高島,安曇川,新旭,近江今津,近江中庄,マキノ,永原,近江塩津}"
11602,1,京都線,キョウトセン,JR東海道本線(京都～大阪),,,,135.6248139121094,34.85192446304667,11,0,"11,602","2019/2/27, 9:42 AM","2019/12/9, 7:19 AM","{京都,西大路,桂川,向日町,長岡京,山崎,島本,高槻,摂津富田,JR総持寺,茨木,千里丘,岸辺,吹田,東淀川,新大阪,大阪}"
11511,1,JR草津線,クサツセン,JR草津線,,,,136.10452457989868,34.964585740522466,11,0,"11,511","2019/2/27, 9:42 AM","2019/12/9, 7:19 AM","{柘植,油日,甲賀,寺庄,甲南,貴生川,三雲,甲西,石部,手原,草津}"
11422,1,JR小浜線,オバマセン,JR小浜線,,,,135.74181843293934,35.530155481603565,10,0,"11,422","2019/2/27, 9:42 AM","2019/12/9, 7:19 AM","{東舞鶴,松尾寺,青郷,三松,若狭高浜,若狭和田,若狭本郷,加斗,勢浜,小浜,東小浜,新平野,上中,若狭有田,大鳥羽,十村,藤井,三方,気山,美浜,東美浜,粟野,西敦賀,敦賀}"
11421,1,九頭竜線,クズリュウセン,JR越美北線,,,,136.44131139538,35.99858408702135,10,0,"11,421","2019/2/27, 9:42 AM","2019/12/9, 7:19 AM","{福井,越前花堂,六条,足羽,越前東郷,一乗谷,越前高田,市波,小和清水,美山,越前薬師,越前大宮,計石,牛ケ原,北大野,越前大野,越前田野,越前富田,下唯野,柿ケ島,勝原,越前下山,九頭竜湖}"
11418,1,JR氷見線,ヒミセン,JR氷見線,,,,137.01678700585944,36.806026512521186,12,0,"11,418","2019/2/27, 9:42 AM","2019/12/9, 7:19 AM","{高岡,越中中川,能町,伏木,越中国分,雨晴,島尾,氷見}"
11417,1,JR城端線,ジョウハナセン,JR城端線,,,,136.96308006077538,36.64686112744874,11,0,"11,417","2019/2/27, 9:42 AM","2019/12/9, 7:19 AM","{高岡,新高岡,二塚,林,戸出,油田,砺波,東野尻,高儀,福野,東石黒,福光,越中山田,城端}"
11415,1,JR北陸本線(米原～金沢),ホクリクホンセン,JR北陸本線(米原～金沢),,,,136.44251036385128,36.33393305788951,8,0,"11,415","2019/2/27, 9:42 AM","2019/12/9, 7:19 AM","{米原,坂田,田村,長浜,虎姫,河毛,高月,木ノ本,余呉,近江塩津,新疋田,敦賀,南今庄,今庄,湯尾,南条,王子保,武生,鯖江,北鯖江,大土呂,越前花堂,福井,森田,春江,丸岡,芦原温泉,細呂木,牛ノ谷,大聖寺,加賀温泉,動橋,粟津,小松,明峰,能美根上,小舞子,美川,加賀笠間,松任,野々市,西金沢,金沢}"
34001,24,阪急神戸本線,ハンキュウコウベホンセン,阪急神戸本線,,,,135.3535624765625,34.7358189257025,11,0,"34,001","2019/2/27, 9:42 AM","2019/12/9, 7:19 AM","{大阪梅田,中津,十三,神崎川,園田,塚口,武庫之荘,西宮北口,夙川,芦屋川,岡本,御影,六甲,王子公園,春日野道,神戸三宮}"
11807,1,JR予讃・内子線,ヨサン・ウチコセン,JR予讃・内子線,,,,132.58951682500003,33.55703537480217,10,0,"11,807","2019/2/27, 9:42 AM","2019/12/9, 7:19 AM","{松山,市坪,北伊予,伊予横田,鳥ノ木,伊予市,向井原,伊予大平,伊予中山,伊予立川,内子,五十崎,喜多山,新谷,高野川,伊予上灘,下灘,串,喜多灘,伊予長浜,伊予出石,伊予白滝,八多喜,春賀,五郎,伊予大洲,西大洲,伊予平野,千丈,八幡浜,双岩,伊予石城,上宇和,卯之町,下宇和,立間,伊予吉田,高光,北宇和島,宇和島}"
11341,1,JR両毛線,リョウモウセン,JR両毛線,,,,139.3878799737738,36.35677394979145,10,0,"11,341","2019/2/27, 9:42 AM","2019/12/9, 7:19 AM","{高崎,高崎問屋町,井野,新前橋,前橋,前橋大島,駒形,伊勢崎,国定,岩宿,桐生,小俣,山前,足利,あしかがフラワーパーク,富田,佐野,岩舟,大平下,栃木,思川,小山}"
1009,1,北陸新幹線,ホクリクシンカンセン,北陸新幹線,,,,138.0356976762414,36.18598137398552,8,0,"1,009","2019/2/27, 9:42 AM","2019/12/9, 7:19 AM",{}
11806,1,JR予讃線,ヨサンセン,JR予讃線,,,,133.36265926932253,34.1929917675124,9,0,"11,806","2019/2/27, 9:42 AM","2019/12/9, 7:19 AM","{高松,香西,鬼無,端岡,国分,讃岐府中,鴨川,八十場,坂出,宇多津,丸亀,讃岐塩屋,多度津,海岸寺,津島ノ宮,詫間,みの,高瀬,比地大,本山,観音寺,豊浜,箕浦,川之江,伊予三島,伊予寒川,赤星,伊予土居,関川,多喜浜,新居浜,中萩,伊予西条,石鎚山,伊予氷見,伊予小松,玉之江,壬生川,伊予三芳,伊予桜井,伊予富田,今治,波止浜,波方,大西,伊予亀岡,菊間,浅海,大浦,伊予北条,柳原,粟井,光洋台,堀江,伊予和気,三津浜,松山}"
11804,1,JR牟岐線,ムギセン,JR牟岐線,,,,134.50842286054694,33.839964753816716,10,0,"11,804","2019/2/27, 9:42 AM","2019/12/9, 7:19 AM","{徳島,阿波富田,二軒屋,文化の森,地蔵橋,中田,南小松島,阿波赤石,立江,羽ノ浦,西原,阿波中島,阿南,見能林,阿波橘,桑野,新野,阿波福井,由岐,田井ノ浜,木岐,北河内,日和佐,山河内,辺川,牟岐,鯖瀬,浅川,阿波海南,海部}"
11802,1,JR高徳線,コウトクセン,JR高徳線,,,,134.3105839707688,34.249541132659736,10,0,"11,802","2019/2/27, 9:42 AM","2019/12/9, 7:19 AM","{高松,昭和町,栗林公園北口,栗林,木太町,屋島,古高松南,八栗口,讃岐牟礼,志度,オレンジタウン,造田,神前,讃岐津田,鶴羽,丹生,三本松,讃岐白鳥,引田,讃岐相生,阿波大宮,板野,阿波川端,板東,池谷,勝瑞,吉成,佐古,徳島}"
11801,1,JR土讃線,ドサンセン,JR土讃線,,,,133.5702572626775,33.76640013004784,9,0,"11,801","2019/2/27, 9:42 AM","2019/12/9, 7:19 AM","{多度津,金蔵寺,善通寺,琴平,塩入,黒川,讃岐財田,坪尻,箸蔵,佃,阿波池田,三縄,祖谷口,阿波川口,小歩危,大歩危,土佐岩原,豊永,大田口,土佐穴内,大杉,土佐北川,角茂谷,繁藤,新改,土佐山田,山田西町,土佐長岡,後免,土佐大津,布師田,土佐一宮,薊野,高知,入明,円行寺口,旭,高知商業前,朝倉,枝川,伊野,波川,小村神社前,日下,岡花,土佐加茂,西佐川,佐川,襟野々,斗賀野,吾桑,多ノ郷,大間,須崎,土佐新荘,安和,土佐久礼,影野,六反地,仁井田,窪川}"
11930,1,JR指宿枕崎線,イブスキマクラザキセン,JR指宿枕崎線,,,,130.50341089279618,31.359999553777016,10,0,"11,930","2019/2/27, 9:42 AM","2019/12/9, 7:19 AM","{鹿児島中央,郡元,南鹿児島,宇宿,谷山,慈眼寺,坂之上,五位野,平川,瀬々串,中名,喜入,前之浜,生見,薩摩今和泉,宮ケ浜,二月田,指宿,山川,大山,西大山,薩摩川尻,東開聞,開聞,入野,頴娃,西頴娃,御領,石垣,水成川,頴娃大川,松ケ浦,薩摩塩屋,白沢,薩摩板敷,枕崎}"
11928,1,JR日南線,ニチナンセン,JR日南線,,,,131.36265390204346,31.683576551144153,10,0,"11,928","2019/2/27, 9:42 AM","2019/12/9, 7:19 AM","{宮崎,南宮崎,田吉,南方,木花,運動公園,曽山寺,子供の国,青島,折生迫,内海,小内海,伊比井,北郷,内之田,飫肥,日南,油津,大堂津,南郷,谷之口,榎原,日向大束,日向北方,串間,福島今町,福島高松,大隅夏井,志布志}"
11925,1,えびの高原線(八代～吉松),エビノコウゲンセン,JR肥薩線(八代～吉松),,,,130.68331185135378,32.28699731526651,10,0,"11,925","2019/2/27, 9:42 AM","2019/12/9, 7:19 AM","{八代,段,坂本,葉木,鎌瀬,瀬戸石,海路,吉尾,白石,球泉洞,一勝地,那良口,渡,西人吉,人吉,大畑,矢岳,真幸,吉松}"
11923,1,阿蘇高原線,アソコウゲンセン,JR豊肥本線,,,,131.26213019826753,33.017126643984355,9,0,"11,923","2019/2/27, 9:42 AM","2019/12/9, 7:19 AM","{熊本,平成,南熊本,新水前寺,水前寺,東海学園前,竜田口,武蔵塚,光の森,三里木,原水,肥後大津,瀬田,立野,赤水,市ノ川,内牧,阿蘇,いこいの村,宮地,波野,滝水,豊後荻,玉来,豊後竹田,朝地,緒方,豊後清川,三重町,菅尾,犬飼,竹中,中判田,大分大学前,敷戸,滝尾,大分}"
11922,1,JR大村線,オオムラセン,JR大村線,,,,129.92142406400626,33.0016978478685,11,0,"11,922","2019/2/27, 9:42 AM","2019/12/9, 7:19 AM","{早岐,ハウステンボス,南風崎,小串郷,川棚,彼杵,千綿,松原,竹松,諏訪,大村,岩松,諫早}"
11921,1,JR唐津線,カラツセン,JR唐津線,,,,130.07740469824216,33.335442702008926,11,0,"11,921","2019/2/27, 9:42 AM","2019/12/9, 7:19 AM","{佐賀,鍋島,バルーンさが,久保田,小城,東多久,中多久,多久,厳木,岩屋,相知,本牟田部,山本,鬼塚,唐津,西唐津}"
11918,1,JR佐世保線,サセボセン,JR佐世保線,,,,129.93997025139936,33.188115656645586,11,0,"11,918","2019/2/27, 9:42 AM","2019/12/9, 7:19 AM","{肥前山口,大町,北方,高橋,武雄温泉,永尾,三間坂,上有田,有田,三河内,早岐,大塔,日宇,佐世保}"
11915,1,JR後藤寺線,ゴトウジセン,JR後藤寺線,,,,130.74314741536125,33.638942676083445,12,0,"11,915","2019/2/27, 9:42 AM","2019/12/9, 7:19 AM","{新飯塚,上三緒,下鴨生,筑前庄内,船尾,田川後藤寺}"
11914,1,JR日田彦山線,ヒタヒコサンセン,JR日田彦山線,,,,130.8729992288538,33.586902600797096,10,0,"11,914","2019/2/27, 9:42 AM","2019/12/9, 7:19 AM","{小倉,西小倉,南小倉,城野,石田,志井公園,志井,石原町,呼野,採銅所,香春,一本松,田川伊田,田川後藤寺,池尻,豊前川崎,西添田,添田,歓遊舎ひこさん,豊前桝田,彦山,筑前岩屋,大行司,宝珠山,大鶴,今山,夜明,光岡,日田}"
1008,1,秋田新幹線,アキタシンカンセン,秋田新幹線,,,,140.36225377377502,37.75728895294477,7,0,"1,008","2019/2/27, 9:42 AM","2019/12/9, 7:19 AM",{}
11913,1,ゆふ高原線,ユフコウゲンセン,JR久大本線,,,,131.03599494330876,33.26206230329554,9,0,"11,913","2019/2/27, 9:42 AM","2019/12/9, 7:19 AM","{久留米,久留米高校前,南久留米,久留米大学前,御井,善導寺,筑後草野,田主丸,筑後吉井,うきは,筑後大石,夜明,光岡,日田,豊後三芳,豊後中川,天ケ瀬,杉河内,北山田,豊後森,恵良,引治,豊後中村,野矢,由布院,南由布,湯平,庄内,天神山,小野屋,鬼瀬,向之原,豊後国分,賀来,南大分,古国府,大分}"
11909,1,JR筑肥線(姪浜～西唐津),チクヒセン,JR筑肥線(姪浜～西唐津),,,,130.1294128359375,33.51164936612572,11,0,"11,909","2019/2/27, 9:42 AM","2019/12/9, 7:19 AM","{姪浜,下山門,今宿,九大学研都市,周船寺,波多江,糸島高校前,筑前前原,美咲が丘,加布里,一貴山,筑前深江,大入,福吉,鹿家,浜崎,虹ノ松原,東唐津,和多田,唐津,西唐津}"
11907,1,JR日豊本線(佐伯～鹿児島中央),ニッポウホンセン,JR日豊本線(佐伯～鹿児島中央),,,,131.44721097991498,32.21697833588649,8,0,"11,907","2019/2/27, 9:42 AM","2019/12/9, 7:19 AM","{佐伯,上岡,直見,直川,重岡,宗太郎,市棚,北川,日向長井,北延岡,延岡,南延岡,旭ケ丘,土々呂,門川,日向市,財光寺,南日向,美々津,東都農,都農,川南,高鍋,日向新富,佐土原,日向住吉,蓮ケ池,宮崎神宮,宮崎,南宮崎,加納,清武,日向沓掛,田野,青井岳,山之口,餅原,三股,都城,西都城,五十市,財部,北俣,大隅大川原,北永野田,霧島神宮,国分,隼人,加治木,錦江,帖佐,姶良,重富,竜ケ水,鹿児島,鹿児島中央}"
11906,1,JR日豊本線(門司港～佐伯),ニッポウホンセン,JR日豊本線(門司港～佐伯),,,,131.3035515557325,33.554935307059374,9,0,"11,906","2019/2/27, 9:42 AM","2019/12/9, 7:19 AM","{門司港,小森江,門司,小倉,西小倉,南小倉,城野,安部山公園,下曽根,朽網,苅田,小波瀬西工大前,行橋,南行橋,新田原,築城,椎田,豊前松江,宇島,三毛門,吉富,中津,東中津,今津,天津,豊前善光寺,柳ケ浦,豊前長洲,宇佐,西屋敷,立石,中山香,杵築,大神,日出,暘谷,豊後豊岡,亀川,別府大学,別府,東別府,西大分,大分,牧,高城,鶴崎,大在,坂ノ市,幸崎,佐志生,下ノ江,熊崎,上臼杵,臼杵,津久見,日代,浅海井,狩生,海崎,佐伯}"
11905,1,JR長崎本線(鳥栖～長崎),ナガサキホンセン,JR長崎本線(鳥栖～長崎),,,,130.15215055841247,33.12136017057496,10,0,"11,905","2019/2/27, 9:42 AM","2019/12/9, 7:19 AM","{鳥栖,新鳥栖,肥前麓,中原,吉野ケ里公園,神埼,伊賀屋,佐賀,鍋島,バルーンさが,久保田,牛津,肥前山口,肥前白石,肥前竜王,肥前鹿島,肥前浜,肥前七浦,肥前飯田,多良,肥前大浦,小長井,長里,湯江,小江,肥前長田,東諫早,諫早,西諫早,喜々津,市布,肥前古賀,現川,東園,大草,本川内,長与,高田,道ノ尾,西浦上,浦上,長崎}"
11903,1,JR鹿児島本線(博多～八代),カゴシマホンセン,JR鹿児島本線(博多～八代),,,,130.50630754953124,33.09244601820777,9,0,"11,903","2019/2/27, 9:42 AM","2019/12/9, 7:19 AM","{博多,竹下,笹原,南福岡,春日,大野城,水城,都府楼南,二日市,天拝山,原田,けやき台,基山,弥生が丘,田代,鳥栖,肥前旭,久留米,荒木,西牟田,羽犬塚,筑後船小屋,瀬高,南瀬高,渡瀬,吉野,銀水,大牟田,荒尾,南荒尾,長洲,大野下,玉名,肥後伊倉,木葉,田原坂,植木,西里,崇城大学前,上熊本,熊本,西熊本,川尻,富合,宇土,松橋,小川,有佐,千丁,新八代,八代}"
11302,1,JR山手線,ヤマノテセン,JR山手線,,,,139.73522275686264,35.69302730762992,12,0,1,"2019/2/27, 9:42 AM","2019/12/9, 7:19 AM","{大崎,五反田,目黒,恵比寿,渋谷,原宿,代々木,新宿,新大久保,高田馬場,目白,池袋,大塚,巣鴨,駒込,田端,西日暮里,日暮里,鶯谷,上野,御徒町,秋葉原,神田,東京,有楽町,新橋,浜松町,田町,品川}"
11332,1,JR京浜東北線,ケイヒントウホクセン,JR京浜東北線,,,,139.6425120970631,35.63929555924292,10,0,2,"2019/2/27, 9:42 AM","2019/12/9, 7:19 AM","{大宮,さいたま新都心,与野,北浦和,浦和,南浦和,蕨,西川口,川口,赤羽,東十条,王子,上中里,田端,西日暮里,日暮里,鶯谷,上野,御徒町,秋葉原,神田,東京,有楽町,新橋,浜松町,田町,品川,大井町,大森,蒲田,川崎,鶴見,新子安,東神奈川,横浜}"
99301,119,都営大江戸線,トエイオオエドセン,都営大江戸線,,,,139.7137041757577,35.707546227112374,12,0,1,"2019/2/27, 9:42 AM","2019/12/9, 7:19 AM","{都庁前,新宿西口,東新宿,若松河田,牛込柳町,牛込神楽坂,飯田橋,春日,本郷三丁目,上野御徒町,新御徒町,蔵前,両国,森下,清澄白河,門前仲町,月島,勝どき,築地市場,汐留,大門,赤羽橋,麻布十番,六本木,青山一丁目,国立競技場,代々木,新宿,西新宿五丁目,中野坂上,東中野,中井,落合南長崎,新江古田,練馬,豊島園,練馬春日町,光が丘}"
99314,128,伊豆箱根鉄道大雄山線,イズハコネテツドウダイユウザンセン,伊豆箱根鉄道大雄山線,,,,139.1309474192675,35.289398083333005,13,0,1,"2019/2/27, 9:42 AM","2019/12/9, 7:19 AM","{小田原,緑町,井細田,五百羅漢,穴部,飯田岡,相模沼田,岩原,塚原,和田河原,富士フイルム前,大雄山}"
1007,1,山形新幹線,ヤマガタシンカンセン,山形新幹線,,,,140.16847776150996,37.58820880985216,8,0,"1,007","2019/2/27, 9:42 AM","2019/12/9, 7:19 AM",{}
1001,1,中央新幹線,チュウオウシンカンセン,中央新幹線,,,,137.493896484375,35.411438052435486,8,1,"1,001","2019/2/27, 9:42 AM","2019/12/9, 7:19 AM",{}
1003,1,山陽新幹線,サンヨウシンカンセン,山陽新幹線,,,,133.14789611677998,34.41933769953404,7,0,"1,003","2019/2/27, 9:42 AM","2019/12/9, 7:19 AM",{}
1010,1,九州新幹線,キュウシュウシンカンセン,九州新幹線,,,,130.5768237942675,32.794280023118354,8,0,"1,010","2019/2/27, 9:42 AM","2019/12/9, 7:19 AM",{}
1011,1,北海道新幹線,ホッカイドウシンカンセン,北海道新幹線,,,,140.64422607421875,42.094146370922736,7,0,"1,011","2019/2/27, 9:42 AM","2019/12/9, 7:19 AM",{}
11101,1,JR函館本線(函館～長万部),ハコダテホンセン,JR函館本線(函館～長万部),,,,140.4833696755387,42.23981411231523,9,0,"11,101","2019/2/27, 9:42 AM","2019/12/9, 7:19 AM","{函館,五稜郭,桔梗,大中山,七飯,新函館北斗,仁山,大沼,大沼公園,赤井川,駒ケ岳,東山,姫川,池田園,流山温泉,銚子口,鹿部,渡島沼尻,渡島砂原,掛澗,尾白内,東森,森,桂川,石谷,本石倉,石倉,落部,野田生,山越,八雲,鷲ノ巣,山崎,黒岩,北豊津,国縫,中ノ沢,長万部}"
11114,1,JR富良野線,フラノセン,JR富良野線,,,,142.42933338107753,43.60983839136586,10,0,"11,114","2019/2/27, 9:42 AM","2019/12/9, 7:19 AM","{旭川,神楽岡,緑が丘,西御料,西瑞穂,西神楽,西聖和,千代ケ岡,北美瑛,美瑛,美馬牛,上富良野,西中,ラベンダー畑,中富良野,鹿討,学田,富良野}"
11115,1,JR宗谷本線,ソウヤホンセン,JR宗谷本線,,,,142.22561395814,44.65872969562157,8,0,"11,115","2019/2/27, 9:42 AM","2019/12/9, 7:19 AM","{旭川,旭川四条,新旭川,永山,北永山,南比布,比布,北比布,蘭留,塩狩,和寒,東六線,剣淵,北剣淵,士別,下士別,多寄,瑞穂,風連,東風連,名寄,日進,北星,智恵文,智北,南美深,美深,初野,紋穂内,恩根内,豊清水,天塩川温泉,咲来,音威子府,筬島,佐久,天塩中川,歌内,問寒別,糠南,雄信内,安牛,南幌延,上幌延,幌延,下沼,豊富,徳満,兜沼,勇知,抜海,南稚内,稚内}"
34007,24,阪急箕面線,ハンキュウミノオセン,阪急箕面線,,,,135.460215661377,34.822978505690116,14,0,"34,007","2019/2/27, 9:42 AM","2019/12/9, 7:19 AM","{石橋阪大前,桜井,牧落,箕面}"
99922,241,熊本市電Ａ系統,クマモトシデンエーライン,熊本市電Ａ系統,,,,130.72211009870557,32.79104219552131,13,0,"99,922","2019/2/27, 9:42 AM","2019/12/9, 7:19 AM","{田崎橋,二本木口,熊本駅前,祇園橋,呉服町,河原町,慶徳校前,辛島町,花畑町,熊本城・市役所前,通町筋,水道町,九品寺交差点,交通局前,味噌天神前,新水前寺駅前,国府,水前寺公園,市立体育館前,商業高校前,八丁馬場,神水交差点,健軍校前,動植物園入口,健軍交番前,健軍町}"
99923,241,熊本市電Ｂ系統,クマモトシデンビーライン,熊本市電Ｂ系統,,,,130.7203425727539,32.79798979396811,13,0,"99,923","2019/2/27, 9:42 AM","2019/12/9, 7:19 AM","{上熊本,県立体育館前,本妙寺入口,杉塘,段山町,蔚山町,新町,洗馬橋,西辛島町,辛島町,花畑町,熊本城・市役所前,通町筋,水道町,九品寺交差点,交通局前,味噌天神前,新水前寺駅前,国府,水前寺公園,市立体育館前,商業高校前,八丁馬場,神水交差点,健軍校前,動植物園入口,健軍交番前,健軍町}"
99926,242,鹿児島市電２系統,カゴシマシデンニケイトウ,鹿児島市電２系統,,,,130.5507183910156,31.581543618004027,14,0,"99,926","2019/2/27, 9:42 AM","2019/12/9, 7:19 AM","{鹿児島駅前,桜島桟橋通,水族館口,市役所前,朝日通,いづろ通,天文館通,高見馬場,加治屋町,高見橋,鹿児島中央駅前,都通,中洲通,市立病院前,神田（交通局前）,唐湊,工学部前,純心学園前,中郡,郡元}"
11102,1,JR函館本線(長万部～小樽),ハコダテホンセン,JR函館本線(長万部～小樽),,,,140.64288780797756,42.919910231257624,9,0,"11,102","2019/2/27, 9:42 AM","2019/12/9, 7:19 AM","{長万部,二股,蕨岱,黒松内,熱郛,目名,蘭越,昆布,ニセコ,比羅夫,倶知安,小沢,銀山,然別,仁木,余市,蘭島,塩谷,小樽}"
11103,1,JR函館本線(小樽～旭川),ハコダテホンセン,JR函館本線(小樽～旭川),,,,141.69791081566132,43.41509739716935,9,0,"11,103","2019/2/27, 9:42 AM","2019/12/9, 7:19 AM","{小樽,南小樽,小樽築港,朝里,銭函,ほしみ,星置,稲穂,手稲,稲積公園,発寒,発寒中央,琴似,桑園,札幌,苗穂,白石,厚別,森林公園,大麻,野幌,高砂,江別,豊幌,幌向,上幌向,岩見沢,峰延,光珠内,美唄,茶志内,奈井江,豊沼,砂川,滝川,江部乙,妹背牛,深川,納内,伊納,近文,旭川}"
11104,1,JR室蘭本線(長万部・室蘭～苫小牧),ムロランホンセン,JR室蘭本線(長万部・室蘭～苫小牧),,,,141.00639370749377,42.570716742880634,9,0,"11,104","2019/2/27, 9:42 AM","2019/12/9, 7:19 AM","{長万部,静狩,小幌,礼文,大岸,豊浦,洞爺,有珠,長和,伊達紋別,北舟岡,稀府,黄金,崎守,本輪西,室蘭,母恋,御崎,輪西,東室蘭,鷲別,幌別,富浦,登別,虎杖浜,竹浦,北吉原,萩野,白老,社台,錦岡,糸井,青葉,苫小牧}"
11105,1,JR室蘭本線(苫小牧～岩見沢),ムロランホンセン,JR室蘭本線(苫小牧～岩見沢),,,,141.74449907924247,42.93841714361782,10,0,"11,105","2019/2/27, 9:42 AM","2019/12/9, 7:19 AM","{苫小牧,沼ノ端,遠浅,早来,安平,追分,三川,古山,由仁,栗山,栗丘,栗沢,志文,岩見沢}"
11106,1,JR根室本線(滝川～新得),ネムロホンセン,JR根室本線(滝川～新得),,,,142.33553315885752,43.35975106210286,10,0,"11,106","2019/2/27, 9:42 AM","2019/12/9, 7:19 AM","{滝川,東滝川,赤平,茂尻,平岸,芦別,上芦別,野花南,島ノ下,富良野,布部,山部,下金山,金山,東鹿越,幾寅,落合,新得}"
11107,1,JR根室本線(新得～釧路),ネムロホンセン,JR根室本線(新得～釧路),,,,143.56474408569,42.965674701143044,9,0,"11,107","2019/2/27, 9:42 AM","2019/12/9, 7:19 AM","{新得,十勝清水,羽帯,御影,芽室,大成,西帯広,柏林台,帯広,札内,稲士別,幕別,利別,池田,十弗,豊頃,新吉野,浦幌,上厚内,厚内,直別,尺別,音別,古瀬,白糠,西庶路,庶路,大楽毛,新大楽毛,新富士,釧路}"
11108,1,花咲線,ハナサキセン,JR根室本線(釧路～根室),,,,145.06428821168254,43.127554624234754,9,0,"11,108","2019/2/27, 9:42 AM","2019/12/9, 7:19 AM","{釧路,東釧路,武佐,別保,上尾幌,尾幌,門静,厚岸,糸魚沢,茶内,浜中,姉別,厚床,初田牛,別当賀,落石,昆布盛,西和田,花咲,東根室,根室}"
11109,1,JR千歳線,チトセセン,JR千歳線,,,,141.56756876161444,42.88585086761011,10,0,"11,109","2019/2/27, 9:42 AM","2019/12/9, 7:19 AM","{苫小牧,沼ノ端,植苗,美々,新千歳空港,南千歳,千歳,長都,サッポロビール庭園,恵庭,恵み野,島松,北広島,上野幌,新札幌,平和,白石,苗穂,札幌}"
11110,1,JR石勝線,セキショウセン,JR石勝線,,,,142.1208103432325,42.97760967295123,9,0,"11,110","2019/2/27, 9:42 AM","2019/12/9, 7:19 AM","{南千歳,追分,東追分,川端,滝ノ上,十三里,新夕張,沼ノ沢,南清水沢,清水沢,鹿ノ谷,夕張,占冠,トマム,新得}"
11111,1,JR日高本線,ヒダカホンセン,JR日高本線,,,,142.18922814999996,42.43948997730969,9,0,"11,111","2019/2/27, 9:42 AM","2019/12/9, 7:19 AM","{苫小牧,勇払,浜厚真,浜田浦,鵡川,汐見,富川,日高門別,豊郷,清畠,厚賀,大狩部,節婦,新冠,静内,静内海水浴場,東静内,春立,日高東別,日高三石,蓬栄,本桐,荻伏,絵笛,浦河,東町,日高幌別,鵜苫,西様似,様似}"
11112,1,JR札沼線,サッショウセン,JR札沼線,,,,141.6575100609375,43.33044877643186,10,0,"11,112","2019/2/27, 9:42 AM","2019/12/9, 7:19 AM","{札幌,桑園,八軒,新川,新琴似,太平,百合が原,篠路,拓北,あいの里教育大,あいの里公園,石狩太美,石狩当別,北海道医療大学,石狩金沢,本中小屋,中小屋,月ケ岡,知来乙,石狩月形,豊ケ岡,札比内,晩生内,札的,浦臼,鶴沼,於札内,南下徳富,下徳富,新十津川}"
11113,1,JR留萌本線,ルモイホンセン,JR留萌本線,,,,141.76379195252093,43.84733116708823,10,0,"11,113","2019/2/27, 9:42 AM","2019/12/9, 7:19 AM","{深川,北一已,秩父別,北秩父別,石狩沼田,真布,恵比島,峠下,幌糠,藤山,大和田,留萌,瀬越,浜中海水浴場,礼受,阿分,信砂,舎熊,朱文別,箸別,増毛}"
11117,1,JR釧網本線,センモウホンセン,JR釧網本線,,,,144.43376556585247,43.52373901301899,9,0,"11,117","2019/2/27, 9:42 AM","2019/12/9, 7:19 AM","{網走,桂台,鱒浦,藻琴,北浜,原生花園,浜小清水,止別,知床斜里,中斜里,南斜里,清里町,札弦,緑,川湯温泉,美留和,摩周,南弟子屈,磯分内,標茶,五十石,茅沼,塘路,細岡,釧路湿原,遠矢,東釧路,釧路}"
11118,1,JR海峡線,カイキョウセン,JR海峡線,,,,140.32904703906252,41.36657456566204,9,0,"11,118","2019/2/27, 9:42 AM","2019/12/9, 7:19 AM","{中小国,津軽今別,竜飛海底,吉岡海底,知内,木古内}"
11119,1,JR江差線,エサシセン,JR江差線,,,,140.4168208243981,41.77538189770945,10,2,"11,119","2019/2/27, 9:42 AM","2019/12/9, 7:19 AM","{江差,上ノ国,中須田,桂岡,宮越,湯ノ岱,神明,吉堀,渡島鶴岡}"
11116,1,JR石北本線,セキホクホンセン,JR石北本線,,,,143.36294609598497,43.96138769857782,8,0,"11,116","2019/2/27, 9:42 AM","2019/12/9, 7:19 AM","{旭川,旭川四条,新旭川,南永山,東旭川,北日ノ出,桜岡,当麻,将軍山,伊香牛,愛別,中愛別,愛山,安足間,東雲,上川,上白滝,白滝,旧白滝,下白滝,丸瀬布,瀬戸瀬,遠軽,安国,生野,生田原,金華,西留辺蘂,留辺蘂,相内,東相内,西北見,北見,柏陽,愛し野,端野,緋牛内,美幌,西女満別,女満別,呼人,網走}"
21007,11,東武越生線,トウブオゴセセン,東武越生線,,,,139.34262265478515,35.95321877096073,12,0,"21,007","2019/2/27, 9:42 AM","2019/12/9, 7:19 AM","{坂戸,一本松,西大家,川角,武州長瀬,東毛呂,武州唐沢,越生}"
21009,11,東武鬼怒川線,トウブキヌガワセン,東武鬼怒川線,,,,139.70717357470699,36.798129745501264,12,0,"21,009","2019/2/27, 9:42 AM","2019/12/9, 7:19 AM","{下今市,大谷向,大桑,新高徳,小佐越,東武ワールドスクウェア,鬼怒川温泉,鬼怒川公園,新藤原}"
21010,11,東武佐野線,トウブサノセン,東武佐野線,,,,139.56805858144526,36.32886759844366,12,0,"21,010","2019/2/27, 9:42 AM","2019/12/9, 7:19 AM","{館林,渡瀬,田島,佐野市,佐野,堀米,吉水,田沼,多田,葛生}"
21011,11,東武桐生線,トウブキリュウセン,東武桐生線,,,,139.32341258398435,36.36939670757345,12,0,"21,011","2019/2/27, 9:42 AM","2019/12/9, 7:19 AM","{太田,三枚橋,治良門橋,藪塚,阿左美,新桐生,相老,赤城}"
23004,13,京成千葉線,ケイセイチバセン,京成千葉線,,,,140.0661342760742,35.65068344559281,12,0,"23,004","2019/2/27, 9:42 AM","2019/12/9, 7:19 AM","{京成津田沼,京成幕張本郷,京成幕張,検見川,京成稲毛,みどり台,西登戸,新千葉,京成千葉,千葉中央}"
22007,12,西武新宿線,セイブシンジュクセン,西武新宿線,,,,139.5308648735163,35.77694687107495,11,0,2,"2019/2/27, 9:42 AM","2019/12/9, 7:19 AM","{西武新宿,高田馬場,下落合,中井,新井薬師前,沼袋,野方,都立家政,鷺ノ宮,下井草,井荻,上井草,上石神井,武蔵関,東伏見,西武柳沢,田無,花小金井,小平,久米川,東村山,所沢,航空公園,新所沢,入曽,狭山市,新狭山,南大塚,本川越}"
22001,12,西武池袋線,セイブイケブクロセン,西武池袋線,,,,139.46789285918442,35.791261736068634,10,0,3,"2019/2/27, 9:42 AM","2019/12/9, 7:19 AM","{池袋,椎名町,東長崎,江古田,桜台,練馬,中村橋,富士見台,練馬高野台,石神井公園,大泉学園,保谷,ひばりヶ丘,東久留米,清瀬,秋津,所沢,西所沢,小手指,狭山ヶ丘,武蔵藤沢,稲荷山公園,入間市,仏子,元加治,飯能,東飯能,高麗,武蔵横手,東吾野,吾野}"
22004,12,西武豊島線,セイブトシマセン,西武豊島線,,,,139.65151682275393,35.74004316669751,15,0,9,"2019/2/27, 9:42 AM","2019/12/9, 7:19 AM","{練馬,豊島園}"
26001,16,東急東横線,トウキュウトウヨコセン,東急東横線,,,,139.66832596832717,35.58608048810499,11,0,1,"2019/2/27, 9:42 AM","2019/12/9, 7:19 AM","{渋谷,代官山,中目黒,祐天寺,学芸大学,都立大学,自由が丘,田園調布,多摩川,新丸子,武蔵小杉,元住吉,日吉,綱島,大倉山,菊名,妙蓮寺,白楽,東白楽,反町,横浜}"
26003,16,東急田園都市線,トウキュウデンエントシセン,東急田園都市線,,,,139.58465916941623,35.58324215005882,11,0,2,"2019/2/27, 9:42 AM","2019/12/9, 7:19 AM","{渋谷,池尻大橋,三軒茶屋,駒沢大学,桜新町,用賀,二子玉川,二子新地,高津,溝の口,梶が谷,宮崎台,宮前平,鷺沼,たまプラーザ,あざみ野,江田,市が尾,藤が丘,青葉台,田奈,長津田,つくし野,すずかけ台,南町田グランベリーパーク,つきみ野,中央林間}"
26006,16,東急多摩川線,トウキュウタマガワセン,東急多摩川線,,,,139.68743273015912,35.5724416406283,13,0,5,"2019/2/27, 9:42 AM","2019/12/9, 7:19 AM","{多摩川,沼部,鵜の木,下丸子,武蔵新田,矢口渡,蒲田}"
26004,16,東急大井町線,トウキュウオオイマチセン,東急大井町線,,,,139.67537624870124,35.60702724307623,12,0,6,"2019/2/27, 9:42 AM","2019/12/9, 7:19 AM","{大井町,下神明,戸越公園,中延,荏原町,旗の台,北千束,大岡山,緑が丘,自由が丘,九品仏,尾山台,等々力,上野毛,二子玉川,二子新地,高津,溝の口}"
24006,14,京王井の頭線,ケイオウイノガシラセン,京王井の頭線,,,,139.63498783283308,35.67668499412642,12,0,1,"2019/2/27, 9:42 AM","2019/12/9, 7:19 AM","{渋谷,神泉,駒場東大前,池ノ上,下北沢,新代田,東松原,明大前,永福町,西永福,浜田山,高井戸,富士見ヶ丘,久我山,三鷹台,井の頭公園,吉祥寺}"
24001,14,京王線,ケイオウセン,京王線,,,,139.53357685914875,35.67836429466227,11,0,4,"2019/2/27, 9:42 AM","2019/12/9, 7:19 AM","{新宿,笹塚,代田橋,明大前,下高井戸,桜上水,上北沢,八幡山,芦花公園,千歳烏山,仙川,つつじヶ丘,柴崎,国領,布田,調布,西調布,飛田給,武蔵野台,多磨霊園,東府中,府中,分倍河原,中河原,聖蹟桜ヶ丘,百草園,高幡不動,南平,平山城址公園,長沼,北野,京王八王子}"
24003,14,京王高尾線,ケイオウタカオセン,京王高尾線,,,,139.3084367460283,35.64331590360225,13,0,7,"2019/2/27, 9:42 AM","2019/12/9, 7:19 AM","{北野,京王片倉,山田,めじろ台,狭間,高尾,高尾山口}"
34008,24,阪急千里線,ハンキュウセンリセン,阪急千里線,,,,135.5133936546556,34.77089106011369,12,0,"34,008","2019/2/27, 9:42 AM","2019/12/9, 7:19 AM","{北千里,山田,南千里,千里山,関大前,豊津,吹田,下新庄,淡路,柴島,天神橋筋六丁目}"
25001,15,小田急線,オダキュウセン,小田急小田原線,,,,139.4347753931644,35.528535238628024,11,0,1,"2019/2/27, 9:42 AM","2019/12/9, 7:19 AM","{新宿,南新宿,参宮橋,代々木八幡,代々木上原,東北沢,下北沢,世田谷代田,梅ヶ丘,豪徳寺,経堂,千歳船橋,祖師ヶ谷大蔵,成城学園前,喜多見,狛江,和泉多摩川,登戸,向ヶ丘遊園,生田,読売ランド前,百合ヶ丘,新百合ヶ丘,柿生,鶴川,玉川学園前,町田,相模大野,小田急相模原,相武台前,座間,海老名,厚木,本厚木,愛甲石田,伊勢原,鶴巻温泉,東海大学前,秦野,渋沢,新松田,開成,栢山,富水,螢田,足柄,小田原}"
25002,15,小田急江ノ島線,オダキュウエノシマセン,小田急江ノ島線,,,,139.44977550160377,35.43574809743092,11,0,3,"2019/2/27, 9:42 AM","2019/12/9, 7:19 AM","{相模大野,東林間,中央林間,南林間,鶴間,大和,桜ヶ丘,高座渋谷,長後,湘南台,六会日大前,善行,藤沢本町,藤沢,本鵠沼,鵠沼海岸,片瀬江ノ島}"
27001,17,京急本線,ケイキュウホンセン,京急本線,,,,139.66542155593754,35.470013165246186,10,0,1,"2019/2/27, 9:42 AM","2019/12/9, 7:19 AM","{泉岳寺,品川,北品川,新馬場,青物横丁,鮫洲,立会川,大森海岸,平和島,大森町,梅屋敷,京急蒲田,雑色,六郷土手,京急川崎,八丁畷,鶴見市場,京急鶴見,花月園前,生麦,京急新子安,子安,神奈川新町,仲木戸,神奈川,横浜,戸部,日ノ出町,黄金町,南太田,井土ヶ谷,弘明寺,上大岡,屏風浦,杉田,京急富岡,能見台,金沢文庫,金沢八景,追浜,京急田浦,安針塚,逸見,汐入,横須賀中央,県立大学,堀ノ内,京急大津,馬堀海岸,浦賀}"
23001,13,京成本線,ケイセイホンセン,京成本線,,,,140.07226251112684,35.72628886952884,10,0,3,"2019/2/27, 9:42 AM","2019/12/9, 7:19 AM","{京成上野,日暮里,新三河島,町屋,千住大橋,京成関屋,堀切菖蒲園,お花茶屋,青砥,京成高砂,京成小岩,江戸川,国府台,市川真間,菅野,京成八幡,鬼越,京成中山,東中山,京成西船,海神,京成船橋,大神宮下,船橋競馬場,谷津,京成津田沼,京成大久保,実籾,八千代台,京成大和田,勝田台,志津,ユーカリが丘,京成臼井,京成佐倉,大佐倉,京成酒々井,宗吾参道,公津の杜,京成成田,東成田,空港第２ビル（第２旅客ターミナル）,成田空港（第１旅客ターミナル）}"
23006,13,成田スカイアクセス,ナリタスカイアクセス,京成成田空港線,,,,140.04557998117627,35.78347470166887,10,0,4,"2019/2/27, 9:42 AM","2019/12/9, 7:19 AM","{京成上野,日暮里,青砥,京成高砂,東松戸,新鎌ヶ谷,千葉ニュータウン中央,印旛日本医大,成田湯川,空港第２ビル（第２旅客ターミナル）,成田空港（第１旅客ターミナル）}"
30001,20,名鉄名古屋本線,メイテツナゴヤホンセン,名鉄名古屋本線,,,,137.0464890930956,35.09024465530144,10,0,"30,001","2019/2/27, 9:42 AM","2019/12/9, 7:19 AM","{豊橋,伊奈,小田渕,国府,御油,名電赤坂,名電長沢,本宿,名電山中,藤川,美合,男川,東岡崎,岡崎公園前,矢作橋,宇頭,新安城,牛田,知立,一ツ木,富士松,豊明,前後,中京競馬場前,有松,左京山,鳴海,本星崎,本笠寺,桜,呼続,堀田,神宮前,金山,山王,名鉄名古屋,栄生,東枇杷島,西枇杷島,二ツ杁,新川橋,須ヶ口,丸ノ内,新清洲,大里,奥田,国府宮,島氏永,妙興寺,名鉄一宮,今伊勢,石刀,新木曽川,黒田,木曽川堤,笠松,岐南,茶所,加納,名鉄岐阜}"
30003,20,名鉄西尾線,メイテツニシオセン,名鉄西尾線,,,,137.0757899990234,34.89567964566029,11,0,"30,003","2019/2/27, 9:42 AM","2019/12/9, 7:19 AM","{新安城,北安城,南安城,碧海古井,堀内公園,桜井,南桜井,米津,桜町前,西尾口,西尾,福地,鎌谷,上横須賀,三河荻原,吉良吉田}"
30005,20,名鉄三河線,メイテツミカワセン,名鉄三河線,,,,137.03974462461656,35.0278917979405,11,0,"30,005","2019/2/27, 9:42 AM","2019/12/9, 7:19 AM","{碧南,碧南中央,新川町,北新川,高浜港,三河高浜,吉浜,小垣江,刈谷市,刈谷,重原,知立,三河知立,三河八橋,若林,竹村,土橋,上挙母,豊田市,梅坪,越戸,平戸橋,猿投}"
30008,20,名鉄常滑線,メイテツトコナメセン,名鉄常滑線,,,,136.87202090129438,35.052184094597166,11,0,"30,008","2019/2/27, 9:42 AM","2019/12/9, 7:19 AM","{名鉄名古屋,山王,金山,神宮前,豊田本町,道徳,大江,大同町,柴田,名和,聚楽園,新日鉄前,太田川,尾張横須賀,寺本,朝倉,古見,長浦,日長,新舞子,大野町,西ノ口,蒲池,榎戸,多屋,常滑}"
30010,20,名鉄知多新線,メイテツチタシンセン,名鉄知多新線,,,,136.88079230957032,34.80481607911712,12,0,"30,010","2019/2/27, 9:42 AM","2019/12/9, 7:19 AM","{富貴,上野間,美浜緑苑,知多奥田,野間,内海}"
30012,20,名鉄瀬戸線,メイテツセトセン,名鉄瀬戸線,,,,136.9925432820312,35.20783035224851,11,0,"30,012","2019/2/27, 9:42 AM","2019/12/9, 7:19 AM","{栄町,東大手,清水,尼ヶ坂,森下,大曽根,矢田,守山自衛隊前,瓢箪山,小幡,喜多山,大森・金城学院前,印場,旭前,尾張旭,三郷,水野,新瀬戸,瀬戸市役所前,尾張瀬戸}"
30014,20,名鉄尾西線,メイテツビサイセン,名鉄尾西線,,,,136.74435732434654,35.243666720392035,11,0,"30,014","2019/2/27, 9:42 AM","2019/12/9, 7:19 AM","{弥富,弥富口,五ノ三,佐屋,日比野,津島,町方,六輪,渕高,丸渕,上丸渕,森上,山崎,玉野,萩原,二子,苅安賀,観音寺,名鉄一宮,西一宮,開明,奥町,玉ノ井}"
30016,20,名鉄各務原線,メイテツカカミガハラセン,名鉄各務原線,,,,136.85325381483733,35.403204284488105,12,0,"30,016","2019/2/27, 9:42 AM","2019/12/9, 7:19 AM","{新鵜沼,鵜沼宿,羽場,苧ヶ瀬,名電各務原,二十軒,三柿野,六軒,各務原市役所前,市民公園前,新那加,新加納,高田橋,手力,切通,細畑,田神,名鉄岐阜}"
30018,20,名鉄小牧線,メイテツコマキセン,名鉄小牧線,,,,136.93961329366346,35.296313523646894,12,0,"30,018","2019/2/27, 9:42 AM","2019/12/9, 7:19 AM","{上飯田,味鋺,味美,春日井,牛山,間内,小牧口,小牧,小牧原,味岡,田県神社前,楽田,羽黒,犬山}"
30020,20,名鉄竹鼻線,メイテツタケハナセン,名鉄竹鼻線,,,,136.73250305295255,35.349351079860924,13,0,"30,020","2019/2/27, 9:42 AM","2019/12/9, 7:19 AM","{笠松,西笠松,柳津,南宿,須賀,不破一色,竹鼻,羽島市役所前,江吉良}"
31002,21,近鉄橿原線,キンテツカシハラセン,近鉄橿原線,,,,135.78551050388046,34.59665269430807,11,0,"31,002","2019/2/27, 9:42 AM","2019/12/9, 7:19 AM","{大和西大寺,尼ヶ辻,西ノ京,九条,近鉄郡山,筒井,平端,ファミリー公園前,結崎,石見,田原本,笠縫,新ノ口,大和八木,八木西口,畝傍御陵前,橿原神宮前}"
31003,21,近鉄南大阪線,キンテツミナミオオサカセン,近鉄南大阪線,,,,135.65305195786686,34.57245204572051,11,0,"31,003","2019/2/27, 9:42 AM","2019/12/9, 7:19 AM","{大阪阿部野橋,河堀口,北田辺,今川,針中野,矢田,河内天美,布忍,高見ノ里,河内松原,恵我ノ荘,高鷲,藤井寺,土師ノ里,道明寺,古市,駒ヶ谷,上ノ太子,二上山,二上神社口,当麻寺,磐城,尺土,高田市,浮孔,坊城,橿原神宮西口,橿原神宮前}"
31005,21,近鉄大阪線,キンテツオオサカセン,近鉄大阪線,,,,135.8720539759081,34.61556505000011,10,0,"31,005","2019/2/27, 9:42 AM","2019/12/9, 7:19 AM","{大阪上本町,鶴橋,今里,布施,俊徳道,長瀬,弥刀,久宝寺口,近鉄八尾,河内山本,高安,恩智,法善寺,堅下,安堂,河内国分,大阪教育大前,関屋,二上,近鉄下田,五位堂,築山,大和高田,松塚,真菅,大和八木,耳成,大福,桜井,大和朝倉,長谷寺,榛原,室生口大野,三本松,赤目口,名張,桔梗が丘,美旗,伊賀神戸,青山町,伊賀上津,西青山,東青山,榊原温泉口,大三,伊勢石橋,川合高岡,伊勢中川}"
24005,14,京王動物園線,ケイオウドウブツエンセン,京王動物園線,,,,139.40999162963863,35.657461750041946,14,0,5,"2019/2/27, 9:42 AM","2019/12/9, 7:19 AM","{高幡不動,多摩動物公園}"
31007,21,近鉄吉野線,キンテツヨシノセン,近鉄吉野線,,,,135.79450404101567,34.429439678711276,12,0,"31,007","2019/2/27, 9:42 AM","2019/12/9, 7:19 AM","{橿原神宮前,岡寺,飛鳥,壺阪山,市尾,葛,吉野口,薬水,福神,大阿太,下市口,越部,六田,大和上市,吉野神宮,吉野}"
28002,18,東京メトロ丸ノ内線,マルノウチセン,東京メトロ丸ノ内線,E60012,レッド,,139.70043660044496,35.70518513577206,12,0,2,"2019/2/27, 9:42 AM","2019/12/9, 7:19 AM","{池袋,新大塚,茗荷谷,後楽園,本郷三丁目,御茶ノ水,淡路町,大手町,東京,銀座,霞ケ関,国会議事堂前,赤坂見附,四ツ谷,四谷三丁目,新宿御苑前,新宿三丁目,新宿,西新宿,中野坂上,新中野,東高円寺,新高円寺,南阿佐ケ谷,荻窪,中野新橋,中野富士見町,方南町}"
28004,18,東京メトロ東西線,トウザイセン,東京メトロ東西線,00A7DB,スカイブルー,,139.8154913497142,35.68326532976152,11,0,4,"2019/2/27, 9:42 AM","2019/12/9, 7:19 AM","{中野,落合,高田馬場,早稲田,神楽坂,飯田橋,九段下,竹橋,大手町,日本橋,茅場町,門前仲町,木場,東陽町,南砂町,西葛西,葛西,浦安,南行徳,行徳,妙典,原木中山,西船橋}"
28005,18,東京メトロ千代田線,チヨダセン,東京メトロ千代田線,009933,グリーン,,139.7558611955078,35.723011671551085,12,0,5,"2019/2/27, 9:42 AM","2019/12/9, 7:19 AM","{北綾瀬,綾瀬,北千住,町屋,西日暮里,千駄木,根津,湯島,新御茶ノ水,大手町,二重橋前,日比谷,霞ケ関,国会議事堂前,赤坂,乃木坂,表参道,明治神宮前〈原宿〉,代々木公園,代々木上原}"
28008,18,東京メトロ半蔵門線,ハンゾウモンセン,東京メトロ半蔵門線,A757A8,パープル,,139.76522714815565,35.68813210626038,12,0,7,"2019/2/27, 9:42 AM","2019/12/9, 7:19 AM","{渋谷,表参道,青山一丁目,永田町,半蔵門,九段下,神保町,大手町,三越前,水天宮前,清澄白河,住吉,錦糸町,押上〈スカイツリー前〉}"
28009,18,東京メトロ南北線,ナンボクセン,東京メトロ南北線,00ADA9,エメラルド,,139.73433187075705,35.71029971840751,12,0,8,"2019/2/27, 9:42 AM","2019/12/9, 7:19 AM","{赤羽岩淵,志茂,王子神谷,王子,西ケ原,駒込,本駒込,東大前,後楽園,飯田橋,市ケ谷,四ツ谷,永田町,溜池山王,六本木一丁目,麻布十番,白金高輪,白金台,目黒}"
27004,17,京急逗子線,ケイキュウズシセン,京急逗子線,,,,139.59885124072264,35.31470434848573,13,0,4,"2019/2/27, 9:42 AM","2019/12/9, 7:19 AM","{金沢八景,六浦,神武寺,新逗子}"
29001,19,相鉄本線,ソウテツホンセン,相鉄本線,,,,139.50914329350906,35.46560374998008,11,0,1,"2019/2/27, 9:42 AM","2019/12/9, 7:19 AM","{横浜,平沼橋,西横浜,天王町,星川,和田町,上星川,西谷,鶴ヶ峰,二俣川,希望ヶ丘,三ツ境,瀬谷,大和,相模大塚,さがみ野,かしわ台,海老名}"
31008,21,近鉄湯の山線,キンテツユノヤマセン,近鉄湯の山線,,,,136.54436416347653,34.99419291150193,12,0,"31,008","2019/2/27, 9:42 AM","2019/12/9, 7:19 AM","{近鉄四日市,中川原,伊勢松本,伊勢川島,高角,桜,菰野,中菰野,大羽根園,湯の山温泉}"
21001,11,東武東上線,トウブトウジョウセン,東武東上線,,,,139.4596378608162,35.92121867100334,10,0,1,"2019/2/27, 9:42 AM","2019/12/9, 7:19 AM","{池袋,北池袋,下板橋,大山,中板橋,ときわ台,上板橋,東武練馬,下赤塚,成増,和光市,朝霞,朝霞台,志木,柳瀬川,みずほ台,鶴瀬,ふじみ野,上福岡,新河岸,川越,川越市,霞ヶ関,鶴ヶ島,若葉,坂戸,北坂戸,高坂,東松山,森林公園,つきのわ,武蔵嵐山,小川町,東武竹沢,男衾,鉢形,玉淀,寄居}"
21002,11,東武伊勢崎線,トウブイセサキセン,東武伊勢崎線,,,,139.49934131661746,36.05676642458757,10,0,2,"2019/2/27, 9:42 AM","2019/12/9, 7:19 AM","{浅草,とうきょうスカイツリー,押上〈スカイツリー前〉,曳舟,東向島,鐘ヶ淵,堀切,牛田,北千住,小菅,五反野,梅島,西新井,竹ノ塚,谷塚,草加,獨協大学前駅〈草加松原〉,新田,蒲生,新越谷,越谷,北越谷,大袋,せんげん台,武里,一ノ割,春日部,北春日部,姫宮,東武動物公園,和戸,久喜,鷲宮,花崎,加須,南羽生,羽生,川俣,茂林寺前,館林,多々良,県,福居,東武和泉,足利市,野州山辺,韮川,太田,細谷,木崎,世良田,境町,剛志,新伊勢崎,伊勢崎}"
21005,11,東武亀戸線,トウブカメイドセン,東武亀戸線,,,,139.8243467565918,35.707951515131064,14,0,3,"2019/2/27, 9:42 AM","2019/12/9, 7:19 AM","{曳舟,小村井,東あずま,亀戸水神,亀戸}"
21006,11,東武大師線,トウブダイシセン,東武大師線,,,,139.78532285449216,35.77906122777852,15,0,4,"2019/2/27, 9:42 AM","2019/12/9, 7:19 AM","{西新井,大師前}"
21003,11,東武日光線,トウブニッコウセン,東武日光線,,,,139.69116016166254,36.44579740499201,9,0,"21,003","2019/2/27, 9:42 AM","2019/12/9, 7:19 AM","{東武動物公園,杉戸高野台,幸手,南栗橋,栗橋,新古河,柳生,板倉東洋大前,藤岡,静和,新大平下,栃木,新栃木,合戦場,家中,東武金崎,楡木,樅山,新鹿沼,北鹿沼,板荷,下小代,明神,下今市,上今市,東武日光}"
21004,11,東武野田線,トウブノダセン,東武野田線,,,,139.89191261825067,35.88791322003917,10,0,"21,004","2019/2/27, 9:42 AM","2019/12/9, 7:19 AM","{大宮,北大宮,大宮公園,大和田,七里,岩槻,東岩槻,豊春,八木崎,春日部,藤の牛島,南桜井,川間,七光台,清水公園,愛宕,野田市,梅郷,運河,江戸川台,初石,流山おおたかの森,豊四季,柏,新柏,増尾,逆井,高柳,六実,新鎌ヶ谷,鎌ヶ谷,馬込沢,塚田,新船橋,船橋}"
31009,21,近鉄山田線,キンテツヤマダセン,近鉄山田線,,,,136.5903377935225,34.569800408478365,11,0,"31,009","2019/2/27, 9:42 AM","2019/12/9, 7:19 AM","{伊勢中川,伊勢中原,松ヶ崎,松阪,東松阪,櫛田,漕代,斎宮,明星,明野,小俣,宮町,伊勢市,宇治山田}"
31012,21,近鉄道明寺線,キンテツドウミョウジセン,近鉄道明寺線,,,,135.6220293597853,34.58011802058419,14,0,"31,012","2019/2/27, 9:42 AM","2019/12/9, 7:19 AM","{道明寺,柏原南口,柏原}"
31014,247,八王子線,ハチオウジセン,八王子線,,,,136.60779761376955,34.95820818544188,14,0,"31,014","2019/2/27, 9:42 AM","2019/12/9, 7:19 AM","{あすなろう四日市,赤堀,日永,西日野}"
31015,21,近鉄志摩線,キンテツシマセン,近鉄志摩線,,,,136.8269031044922,34.40319761450657,11,0,"31,015","2019/2/27, 9:42 AM","2019/12/9, 7:19 AM","{鳥羽,中之郷,志摩赤崎,船津,加茂,松尾,白木,五知,沓掛,上之郷,志摩磯部,穴川,志摩横山,鵜方,志摩神明,賢島}"
31018,21,近鉄御所線,キンテツゴセセン,近鉄御所線,,,,135.72487327246097,34.48800185298248,13,0,"31,018","2019/2/27, 9:42 AM","2019/12/9, 7:19 AM","{尺土,近鉄新庄,忍海,近鉄御所}"
31020,21,近鉄奈良線,キンテツナラセン,近鉄奈良線,,,,135.6903788327519,34.68769268005339,11,0,"31,020","2019/2/27, 9:42 AM","2019/12/9, 7:19 AM","{布施,河内永和,河内小阪,八戸ノ里,若江岩田,河内花園,東花園,瓢箪山,枚岡,額田,石切,生駒,東生駒,富雄,学園前,菖蒲池,大和西大寺,新大宮,近鉄奈良}"
31023,21,近鉄けいはんな線,キンテツケイハンナセン,近鉄けいはんな線,,,,135.67586383007813,34.69894594010989,12,0,"31,023","2019/2/27, 9:42 AM","2019/12/9, 7:19 AM","{長田,荒本,吉田,新石切,生駒,白庭台,学研北生駒,学研奈良登美ヶ丘}"
99927,243,ゆいレール,ユイレール,沖縄都市モノレール線,,,,127.68810912275387,26.212293793440132,13,0,"99,927","2019/2/27, 9:42 AM","2019/12/9, 7:19 AM","{那覇空港,赤嶺,小禄,奥武山公園,壺川,旭橋,県庁前,美栄橋,牧志,安里,おもろまち,古島,市立病院前,儀保,首里,石嶺,経塚,浦添前田,てだこ浦西}"
21008,11,東武宇都宮線,トウブウツノミヤセン,東武宇都宮線,,,,139.81789435188466,36.4837902872465,12,0,"21,008","2019/2/27, 9:42 AM","2019/12/9, 7:19 AM","{栃木,新栃木,野州平川,野州大塚,壬生,国谷,おもちゃのまち,安塚,西川田,江曽島,南宇都宮,東武宇都宮}"
21012,11,東武小泉線,トウブコイズミセン,東武小泉線,,,,139.45065401063812,36.25658592696113,12,0,"21,012","2019/2/27, 9:42 AM","2019/12/9, 7:19 AM","{館林,成島,本中野,篠塚,東小泉,小泉町,西小泉,太田,竜舞}"
22002,12,西武秩父線,セイブチチブセン,西武秩父線,,,,139.20473307155817,35.92170459623052,11,0,"22,002","2019/2/27, 9:42 AM","2019/12/9, 7:19 AM","{飯能,東飯能,高麗,武蔵横手,東吾野,吾野,西吾野,正丸,芦ヶ久保,横瀬,西武秩父}"
22005,12,西武狭山線,セイブサヤマセン,西武狭山線,,,,139.43924865608392,35.779602472345594,14,0,"22,005","2019/2/27, 9:42 AM","2019/12/9, 7:19 AM","{西所沢,下山口,西武球場前}"
23005,13,京成千原線,ケイセイチハラセン,京成千原線,,,,140.14014244172847,35.57885231430836,12,0,"23,005","2019/2/27, 9:42 AM","2019/12/9, 7:19 AM","{千葉中央,千葉寺,大森台,学園前,おゆみ野,ちはら台}"
22008,12,西武拝島線,セイブハイジマセン,西武拝島線,,,,139.41313556738282,35.73286470476111,12,0,4,"2019/2/27, 9:42 AM","2019/12/9, 7:19 AM","{小平,萩山,小川,東大和市,玉川上水,武蔵砂川,西武立川,拝島}"
22010,12,西武国分寺線,セイブコクブンジセン,西武国分寺線,,,,139.46774104550786,35.73062820396875,13,0,5,"2019/2/27, 9:42 AM","2019/12/9, 7:19 AM","{国分寺,恋ヶ窪,鷹の台,小川,東村山}"
22012,12,西武多摩川線,セイブタマガワセン,西武多摩川線,,,,139.51353168782225,35.67702828078766,13,0,6,"2019/2/27, 9:42 AM","2019/12/9, 7:19 AM","{武蔵境,新小金井,多磨,白糸台,競艇場前,是政}"
22011,12,西武多摩湖線,セイブタマコセン,西武多摩湖線,,,,139.46850918519954,35.7410481319452,13,0,7,"2019/2/27, 9:42 AM","2019/12/9, 7:19 AM","{国分寺,一橋学園,青梅街道,萩山,八坂,武蔵大和,西武遊園地}"
22006,12,レオライナー,レオライナー,西武山口線,,,,139.4314444179688,35.77056760911252,14,0,10,"2019/2/27, 9:42 AM","2019/12/9, 7:19 AM","{西武遊園地,遊園地西,西武球場前}"
26005,16,東急池上線,トウキュウイケガミセン,東急池上線,,,,139.70623944130853,35.593936510961086,13,0,3,"2019/2/27, 9:42 AM","2019/12/9, 7:19 AM","{五反田,大崎広小路,戸越銀座,荏原中延,旗の台,長原,洗足池,石川台,雪が谷大塚,御嶽山,久が原,千鳥町,池上,蓮沼,蒲田}"
26002,16,東急目黒線,トウキュウメグロセン,東急目黒線,,,,139.67835129424657,35.60375542918126,13,0,4,"2019/2/27, 9:42 AM","2019/12/9, 7:19 AM","{目黒,不動前,武蔵小山,西小山,洗足,大岡山,奥沢,田園調布,多摩川,新丸子,武蔵小杉,元住吉,日吉}"
26007,16,東急世田谷線,トウキュウセタガヤセン,東急世田谷線,,,,139.6525418613769,35.65319677988148,14,0,7,"2019/2/27, 9:42 AM","2019/12/9, 7:19 AM","{三軒茶屋,西太子堂,若林,松陰神社前,世田谷,上町,宮の坂,山下,松原,下高井戸}"
26008,16,東急こどもの国線,トウキュウコドモノクニセン,東急こどもの国線,,,,139.4878590899218,35.54810975753719,14,0,8,"2019/2/27, 9:42 AM","2019/12/9, 7:19 AM","{長津田,恩田,こどもの国}"
24004,14,京王競馬場線,ケイオウケイバジョウセン,京王競馬場線,,,,139.48962301586914,35.668945374044675,14,0,2,"2019/2/27, 9:42 AM","2019/12/9, 7:19 AM","{東府中,府中競馬正門前}"
24007,14,京王新線,ケイオウシンセン,京王新線,,,,139.68525052070618,35.6804985281479,14,0,3,"2019/2/27, 9:42 AM","2019/12/9, 7:19 AM","{新線新宿,笹塚,初台,幡ヶ谷}"
24002,14,京王相模原線,ケイオウサガミハラセン,京王相模原線,,,,139.4375162167969,35.625846999999986,12,0,6,"2019/2/27, 9:42 AM","2019/12/9, 7:19 AM","{調布,京王多摩川,京王稲田堤,京王よみうりランド,稲城,若葉台,京王永山,京王多摩センター,京王堀之内,南大沢,多摩境,橋本}"
25003,15,小田急多摩線,オダキュウタマセン,小田急多摩線,,,,139.4602937407226,35.61945834974999,13,0,2,"2019/2/27, 9:42 AM","2019/12/9, 7:19 AM","{新百合ヶ丘,五月台,栗平,黒川,はるひ野,小田急永山,小田急多摩センター,唐木田}"
27002,17,京急空港線,ケイキュウクウコウセン,京急空港線,,,,139.74978371429006,35.5550012530646,13,0,2,"2019/2/27, 9:42 AM","2019/12/9, 7:19 AM","{京急蒲田,糀谷,大鳥居,穴守稲荷,天空橋,羽田空港国際線ターミナル,羽田空港国内線ターミナル}"
23002,13,京成押上線,ケイセイオシアゲセン,京成押上線,,,,139.84176579896905,35.737000349715125,13,0,1,"2019/2/27, 9:42 AM","2019/12/9, 7:19 AM","{押上（スカイツリー前）,京成曳舟,八広,四ツ木,京成立石,青砥,京成高砂}"
23003,13,京成金町線,ケイセイカナマチセン,京成金町線,,,,139.86858506876956,35.76122200631621,14,0,2,"2019/2/27, 9:42 AM","2019/12/9, 7:19 AM","{京成高砂,柴又,京成金町}"
30002,20,名鉄豊川線,メイテツトヨカワセン,名鉄豊川線,,,,137.36208428144528,34.82916687204688,13,0,"30,002","2019/2/27, 9:42 AM","2019/12/9, 7:19 AM","{国府,八幡,諏訪町,稲荷口,豊川稲荷}"
30004,20,名鉄蒲郡線,メイテツガマゴオリセン,名鉄蒲郡線,,,,137.1490534628906,34.8301550839259,12,0,"30,004","2019/2/27, 9:42 AM","2019/12/9, 7:19 AM","{吉良吉田,三河鳥羽,西幡豆,東幡豆,こどもの国,西浦,形原,三河鹿島,蒲郡競艇場前,蒲郡}"
30006,20,名鉄豊田線,メイテツトヨタセン,名鉄豊田線,,,,137.09495931738275,35.12029623536202,12,0,"30,006","2019/2/27, 9:42 AM","2019/12/9, 7:19 AM","{豊田市,梅坪,上豊田,浄水,三好ヶ丘,黒笹,米野木,日進,赤池}"
30007,20,名鉄空港線,メイテツクウコウセン,名鉄空港線,,,,136.82754263493166,34.87838958925191,13,0,"30,007","2019/2/27, 9:42 AM","2019/12/9, 7:19 AM","{常滑,りんくう常滑,中部国際空港}"
30009,20,名鉄河和線,メイテツコウワセン,名鉄河和線,,,,136.9060465819406,34.92375177491229,11,0,"30,009","2019/2/27, 9:42 AM","2019/12/9, 7:19 AM","{太田川,高横須賀,南加木屋,八幡新田,巽ヶ丘,白沢,坂部,阿久比,椋岡,植大,半田口,住吉町,知多半田,成岩,青山,上ゲ,知多武豊,富貴,布土,河和口,河和}"
30011,20,名鉄築港線,メイテツチッコウセン,名鉄築港線,,,,136.90566317724608,35.0918767965234,14,0,"30,011","2019/2/27, 9:42 AM","2019/12/9, 7:19 AM","{大江,東名古屋港}"
30013,20,名鉄津島線,メイテツツシマセン,名鉄津島線,,,,136.7781820224609,35.198356309027695,12,0,"30,013","2019/2/27, 9:42 AM","2019/12/9, 7:19 AM","{須ヶ口,甚目寺,七宝,木田,青塚,勝幡,藤浪,津島}"
30015,20,名鉄犬山線,メイテツイヌヤマセン,名鉄犬山線,,,,136.8898647269532,35.31165711367206,11,0,"30,015","2019/2/27, 9:42 AM","2019/12/9, 7:19 AM","{名鉄名古屋,栄生,東枇杷島,下小田井,中小田井,上小田井,西春,徳重・名古屋芸大,大山寺,岩倉,石仏,布袋,江南,柏森,扶桑,木津用水,犬山口,犬山,犬山遊園,新鵜沼}"
30017,20,名鉄広見線,メイテツヒロミセン,名鉄広見線,,,,137.02897624906325,35.417841533605575,12,0,"30,017","2019/2/27, 9:42 AM","2019/12/9, 7:19 AM","{犬山,富岡前,善師野,西可児,可児川,日本ライン今渡,新可児,明智,顔戸,御嵩口,御嵩}"
30019,20,犬山モノレール,イヌヤマモノレール,名鉄モンキーパークモノレール線,,,,136.9511614973585,35.39061782333852,15,2,"30,019","2019/2/27, 9:42 AM","2019/12/9, 7:19 AM","{犬山遊園,成田山,動物園}"
30021,20,名鉄羽島線,メイテツハシマセン,名鉄羽島線,,,,136.693134,35.314049762389665,14,0,"30,021","2019/2/27, 9:42 AM","2019/12/9, 7:19 AM","{江吉良,新羽島}"
31001,21,近鉄難波線,キンテツナンバセン,近鉄難波線,,,,135.52715820898436,34.663363778757,12,0,"31,001","2019/2/27, 9:42 AM","2019/12/9, 7:19 AM","{大阪難波,近鉄日本橋,大阪上本町,鶴橋,今里,布施}"
31004,21,近鉄養老線,キンテツヨウロウセン,近鉄養老線,,,,136.63201242347122,35.2592322194577,10,2,"31,004","2019/2/27, 9:42 AM","2019/12/9, 7:19 AM","{桑名,播磨,下深谷,下野代,多度,美濃松山,石津,美濃山崎,駒野,美濃津屋,養老,美濃高田,烏江,大外羽,友江,美濃青柳,西大垣,大垣,室,北大垣,東赤坂,広神戸,北神戸,池野,北池野,美濃本郷,揖斐}"
31006,21,近鉄伊賀線,キンテツイガセン,近鉄伊賀線,,,,136.13928274337047,34.733360528717526,12,2,"31,006","2019/2/27, 9:42 AM","2019/12/9, 7:19 AM","{伊賀上野,新居,西大手,上野市,広小路,茅町,桑町,猪田道,市部,依那古,丸山,上林,比土,伊賀神戸}"
28003,18,東京メトロ日比谷線,ヒビヤセン,東京メトロ日比谷線,89A1AD,シルバー,,139.76790012172296,35.69469233873322,12,0,3,"2019/2/27, 9:42 AM","2019/12/9, 7:19 AM","{北千住,南千住,三ノ輪,入谷,上野,仲御徒町,秋葉原,小伝馬町,人形町,茅場町,八丁堀,築地,東銀座,銀座,日比谷,霞ケ関,神谷町,六本木,広尾,恵比寿,中目黒}"
28006,18,東京メトロ有楽町線,ユウラクチョウセン,東京メトロ有楽町線,C5C544,ゴールド,,139.70420434309563,35.73316551916096,11,0,6,"2019/2/27, 9:42 AM","2019/12/9, 7:19 AM","{和光市,地下鉄成増,地下鉄赤塚,平和台,氷川台,小竹向原,千川,要町,池袋,東池袋,護国寺,江戸川橋,飯田橋,市ケ谷,麹町,永田町,桜田門,有楽町,銀座一丁目,新富町,月島,豊洲,辰巳,新木場}"
28010,18,東京メトロ副都心線,フクトシンセン,東京メトロ副都心線,BB6633,ブラウン,,139.686663477539,35.731442005432505,12,0,9,"2019/2/27, 9:42 AM","2019/12/9, 7:19 AM","{和光市,地下鉄成増,地下鉄赤塚,平和台,氷川台,小竹向原,千川,要町,池袋,雑司が谷,西早稲田,東新宿,新宿三丁目,北参道,明治神宮前〈原宿〉,渋谷}"
27003,17,京急大師線,ケイキュウダイシセン,京急大師線,,,,139.7232999893988,35.53569049987193,14,0,3,"2019/2/27, 9:42 AM","2019/12/9, 7:19 AM","{京急川崎,港町,鈴木町,川崎大師,東門前,産業道路,小島新田}"
27005,17,京急久里浜線,ケイキュウクリハマセン,京急久里浜線,,,,139.66828232270188,35.228707904602416,12,0,5,"2019/2/27, 9:42 AM","2019/12/9, 7:19 AM","{堀ノ内,新大津,北久里浜,京急久里浜,ＹＲＰ野比,京急長沢,津久井浜,三浦海岸,三崎口}"
29002,19,相鉄いずみ野線,ソウテツイズミノセン,相鉄いずみ野線,,,,139.49649288818364,35.431541345897735,13,0,2,"2019/2/27, 9:42 AM","2019/12/9, 7:19 AM","{二俣川,南万騎が原,緑園都市,弥生台,いずみ野,いずみ中央,ゆめが丘,湘南台}"
31010,21,近鉄鳥羽線,キンテツトバセン,近鉄鳥羽線,,,,136.77274584550787,34.48381020039476,12,0,"31,010","2019/2/27, 9:42 AM","2019/12/9, 7:19 AM","{宇治山田,五十鈴川,朝熊,池の浦,鳥羽}"
31011,21,近鉄天理線,キンテツテンリセン,近鉄天理線,,,,135.8037012407226,34.602762999999996,13,0,"31,011","2019/2/27, 9:42 AM","2019/12/9, 7:19 AM","{平端,二階堂,前栽,天理}"
31013,247,内部線,ウツベセン,内部線,,,,136.60513649804693,34.94951463470304,13,0,"31,013","2019/2/27, 9:42 AM","2019/12/9, 7:19 AM","{あすなろう四日市,赤堀,日永,南日永,泊,追分,小古曽,内部}"
31016,21,近鉄生駒線,キンテツイコマセン,近鉄生駒線,,,,135.70291861506826,34.65409575465715,13,0,"31,016","2019/2/27, 9:42 AM","2019/12/9, 7:19 AM","{生駒,菜畑,一分,南生駒,萩の台,東山,元山上口,平群,竜田川,勢野北口,信貴山下,王寺}"
31017,21,近鉄田原本線,キンテツタワラモトセン,近鉄田原本線,,,,135.7435140383301,34.57463758454634,13,0,"31,017","2019/2/27, 9:42 AM","2019/12/9, 7:19 AM","{西田原本,黒田,但馬,箸尾,池部,佐味田川,大輪田,新王寺}"
31019,21,近鉄鈴鹿線,キンテツスズカセン,近鉄鈴鹿線,,,,136.5827957820312,34.877984989431155,13,0,"31,019","2019/2/27, 9:42 AM","2019/12/9, 7:19 AM","{伊勢若松,柳,鈴鹿市,三日市,平田町}"
31021,21,近鉄信貴線,キンテツシギセン,近鉄信貴線,,,,135.63263404760744,34.62506251662149,14,0,"31,021","2019/2/27, 9:42 AM","2019/12/9, 7:19 AM","{河内山本,服部川,信貴山口}"
31022,21,近鉄長野線,キンテツナガノセン,近鉄長野線,,,,135.59867586181645,34.50049474841641,12,0,"31,022","2019/2/27, 9:42 AM","2019/12/9, 7:19 AM","{古市,喜志,富田林,富田林西口,川西,滝谷不動,汐ノ宮,河内長野}"
31024,21,西信貴ケーブル,ニシシギケーブル,近鉄西信貴鋼索線,,,,135.64795600000002,34.61767062824505,15,0,"31,024","2019/2/27, 9:42 AM","2019/12/9, 7:19 AM","{信貴山口,高安山}"
31026,21,生駒ケーブル,イコマケーブル,近鉄生駒鋼索線,,,,135.68880395239262,34.6858188007975,14,0,"31,026","2019/2/27, 9:42 AM","2019/12/9, 7:19 AM","{鳥居前,宝山寺,梅屋敷,霞ヶ丘,生駒山上}"
32002,22,南海空港線,ナンカイクウコウセン,南海空港線,,,,135.2840674179688,34.423067923727004,12,0,"32,002","2019/2/27, 9:42 AM","2019/12/9, 7:19 AM","{泉佐野,りんくうタウン,関西空港}"
32003,22,南海和歌山港線,ナンカイワカヤマセン,南海和歌山港線,,,,135.1551397089844,34.23138085531331,13,0,"32,003","2019/2/27, 9:42 AM","2019/12/9, 7:19 AM","{和歌山市,和歌山港}"
32004,22,南海高師浜線,ナンカイタカシノハマセン,南海高師浜線,,,,135.43873427514654,34.53069292333956,15,0,"32,004","2019/2/27, 9:42 AM","2019/12/9, 7:19 AM","{羽衣,伽羅橋,高師浜}"
32005,22,南海加太線,ナンカイカダセン,南海加太線,,,,135.1256245132356,34.26437499220276,12,0,"32,005","2019/2/27, 9:42 AM","2019/12/9, 7:19 AM","{和歌山市,紀ノ川,東松江,中松江,八幡前,西ノ庄,二里ヶ浜,磯ノ浦,加太}"
32006,22,南海多奈川線,ナンカイタナガワセン,南海多奈川線,,,,135.14480431347658,34.31836786223378,14,0,"32,006","2019/2/27, 9:42 AM","2019/12/9, 7:19 AM","{みさき公園,深日町,深日港,多奈川}"
32008,22,南海高野山ケーブル,ナンカイコウヤサンケーブル,南海高野山ケーブル,,,,135.5799343306885,34.231566237600404,15,0,"32,008","2019/2/27, 9:42 AM","2019/12/9, 7:19 AM","{極楽橋,高野山}"
32009,22,南海汐見橋線,ナンカイシオミバシセン,南海汐見橋線,,,,135.4864026878222,34.6483515937348,13,0,"32,009","2019/2/27, 9:42 AM","2019/12/9, 7:19 AM","{汐見橋,芦原町,木津川,津守,西天下茶屋,岸里玉出}"
33002,23,京阪宇治線,ケイハンウジセン,京阪宇治線,,,,135.78688991796878,34.91898737500002,13,0,"33,002","2019/2/27, 9:42 AM","2019/12/9, 7:19 AM","{中書島,観月橋,桃山南口,六地蔵,木幡,黄檗,三室戸,宇治}"
33003,23,京阪交野線,ケイハンカタノセン,京阪交野線,,,,135.66786864086907,34.79400315604697,13,0,"33,003","2019/2/27, 9:42 AM","2019/12/9, 7:19 AM","{枚方市,宮之阪,星ヶ丘,村野,郡津,交野市,河内森,私市}"
33005,23,男山ケーブル,オトコヤマケーブル,京阪鋼索線,,,,135.69970633862306,34.883348860758936,16,0,"33,005","2019/2/27, 9:42 AM","2019/12/9, 7:19 AM","{ケーブル八幡宮口,ケーブル八幡宮山上}"
33007,23,京阪京津線,ケイハンケイシンセン,京阪京津線,,,,135.83517567194053,35.00559947799588,13,0,"33,007","2019/2/27, 9:42 AM","2019/12/9, 7:19 AM","{御陵,京阪山科,四宮,追分,大谷,上栄町,びわ湖浜大津}"
33008,23,京阪中之島線,ケイハンナカノシマセン,京阪中之島線,,,,135.50042809311526,34.69339585417953,14,0,"33,008","2019/2/27, 9:42 AM","2019/12/9, 7:19 AM","{天満橋,なにわ橋,大江橋,渡辺橋,中之島}"
34003,24,阪急京都本線,ハンキュウキョウトホンセン,阪急京都本線,,,,135.6107341268837,34.86050585185201,10,0,"34,003","2019/2/27, 9:42 AM","2019/12/9, 7:19 AM","{京都河原町,烏丸,大宮,西院,西京極,桂,洛西口,東向日,西向日,長岡天神,西山天王山,大山崎,水無瀬,上牧,高槻市,富田,総持寺,茨木市,南茨木,摂津市,正雀,相川,上新庄,淡路,崇禅寺,南方,十三,大阪梅田}"
34005,24,阪急甲陽線,ハンキュウコウヨウセン,阪急甲陽線,,,,135.3287615079346,34.752838687945605,14,0,"34,005","2019/2/27, 9:42 AM","2019/12/9, 7:19 AM","{夙川,苦楽園口,甲陽園}"
34006,24,阪急伊丹線,ハンキュウイタミセン,阪急伊丹線,,,,135.41460476586917,34.77006123301063,14,0,"34,006","2019/2/27, 9:42 AM","2019/12/9, 7:19 AM","{塚口,稲野,新伊丹,伊丹}"
34009,24,阪急嵐山線,ハンキュウアラシヤマセン,阪急嵐山線,,,,135.69109537036138,34.9964984899299,14,0,"34,009","2019/2/27, 9:42 AM","2019/12/9, 7:19 AM","{桂,上桂,松尾大社,嵐山}"
35002,25,阪神なんば線,ハンシンナンバセン,阪神なんば線,,,,135.45421802017404,34.694375856270945,13,0,"35,002","2019/2/27, 9:42 AM","2019/12/9, 7:19 AM","{大阪難波,桜川,ドーム前,九条,西九条,千鳥橋,伝法,福,出来島,大物,尼崎}"
35003,25,阪神武庫川線,ハンシンムコガワセン,阪神武庫川線,,,,135.37922457275386,34.71224332796686,15,0,"35,003","2019/2/27, 9:42 AM","2019/12/9, 7:19 AM","{武庫川,東鳴尾,洲先,武庫川団地前}"
36002,26,西鉄太宰府線,ニシテツダザイフセン,西鉄太宰府線,,,,130.52547098942387,33.51078066666702,14,0,"36,002","2019/2/27, 9:42 AM","2019/12/9, 7:19 AM","{西鉄二日市,西鉄五条,太宰府}"
36004,26,西鉄貝塚線,ニシテツカイヅカセン,西鉄貝塚線,,,,130.4465090625,33.71197663033313,12,0,"36,004","2019/2/27, 9:42 AM","2019/12/9, 7:19 AM","{貝塚,名島,西鉄千早,香椎宮前,西鉄香椎,香椎花園前,唐の原,和白,三苫,西鉄新宮,古賀ゴルフ場前,西鉄古賀,花見,西鉄福間,宮地岳,津屋崎}"
99103,101,札幌市営地下鉄東豊線,サッポロシエイチカテツトウホウセン,札幌市営地下鉄東豊線,,,,141.37309843652338,43.071952122475835,12,0,"99,103","2019/2/27, 9:42 AM","2019/12/9, 7:19 AM","{栄町,新道東,元町,環状通東,東区役所前,北１３条東,さっぽろ,大通,豊水すすきの,学園前,豊平公園,美園,月寒中央,福住}"
99106,102,函館市電５系統,ハコダテシデンゴケイトウ,函館市電５系統,,,,140.74372620057875,41.779569127970504,13,0,"99,106","2019/2/27, 9:42 AM","2019/12/9, 7:19 AM","{湯の川,湯の川温泉,函館アリーナ前,駒場車庫前,競馬場前,深堀町,柏木町,杉並町,五稜郭公園前,中央病院前,千代台,堀川町,昭和橋,千歳町,新川町,松風町,函館駅前,市役所前,魚市場通,十字街,末広町,大町,函館どつく前}"
99108,248,道南いさりび鉄道線,ドウナンイサリビテツドウセン,道南いさりび鉄道線,,,,140.5858612060547,41.72930517452587,11,0,"99,108","2019/2/27, 9:42 AM","2019/12/9, 7:19 AM","{木古内,札苅,泉沢,釜谷,渡島当別,茂辺地,上磯,清川口,久根別,東久根別,七重浜,五稜郭,函館}"
99202,105,弘南鉄道弘南線,コウナンテツドウコウナンセン,弘南鉄道弘南線,,,,140.54871349870132,40.61175481671139,12,0,"99,202","2019/2/27, 9:42 AM","2019/12/9, 7:19 AM","{弘前,弘前東高前,運動公園前,新里,館田,平賀,柏農高校前,津軽尾上,尾上高校前,田んぼアート,田舎館,境松,黒石}"
99204,106,十和田観光電鉄,トワダカンコウデンテツ,十和田観光電鉄,,,,141.2927016740075,40.64340822784739,12,2,"99,204","2019/2/27, 9:42 AM","2019/12/9, 7:19 AM","{三沢,大曲,柳沢,七百,古里,三農校前,高清水,北里大学前,工業高校前,ひがし野団地,十和田市}"
99207,109,三陸鉄道北リアス線,サンリクテツドウキタリアスセン,三陸鉄道北リアス線,,,,141.85979926757818,39.91336094280288,10,0,"99,207","2019/2/27, 9:42 AM","2019/12/9, 7:19 AM",{}
99209,110,秋田内陸線,アキタナイリクセン,秋田内陸縦貫鉄道秋田内陸線,,,,140.46893411024814,39.91759531305777,10,0,"99,209","2019/2/27, 9:42 AM","2019/12/9, 7:19 AM","{鷹巣,西鷹巣,小ヶ田,大野台,合川,上杉,米内沢,桂瀬,阿仁前田,前田南,小渕,阿仁合,荒瀬,萱草,笑内,岩野目,比立内,奥阿仁,阿仁マタギ,戸沢,上桧木内,左通,羽後中里,松葉,羽後長戸呂,八津,西明寺,羽後太田,角館}"
99210,111,鳥海山ろく線,チョウカイサンロクセン,由利高原鉄道鳥海山ろく線,,,,140.0943787923144,39.315005300556045,11,0,"99,210","2019/2/27, 9:42 AM","2019/12/9, 7:19 AM","{羽後本荘,薬師堂,子吉,鮎川,黒沢,曲沢,前郷,久保田,西滝沢,吉沢,川辺,矢島}"
99212,113,くりはら田園鉄道線,クリハラデンエンテツドウセン,くりはら田園鉄道線,,,,141.03326683593752,38.81574934992097,11,2,"99,212","2019/2/27, 9:42 AM","2019/12/9, 7:19 AM","{石越,荒町,若柳,谷地畑,大岡小前,大岡,沢辺,津久毛,杉橋,鳥矢崎,栗駒,栗原田町,尾松,鶯沢,鶯沢工業高校前,細倉マインパーク前}"
99218,115,仙台市営地下鉄東西線,センダイシエイチカテツトウザイセン,仙台市営地下鉄東西線,,,,140.88815689086914,38.26109769288554,12,0,"99,214","2019/2/27, 9:42 AM","2019/12/9, 7:19 AM","{八木山動物公園,青葉山,川内,国際センター,大町西公園,青葉通一番町,仙台,宮城野通,連坊,薬師堂,卸町,六丁の目,荒井}"
99217,118,仙台空港線,センダイクウコウセン,仙台空港鉄道仙台空港線,,,,140.90579885449222,38.161795240604704,13,0,"99,217","2019/2/27, 9:42 AM","2019/12/9, 7:19 AM","{名取,杜せきのした,美田園,仙台空港}"
99344,151,箱根登山ケーブルカー,ハコネトザンケーブルカー,箱根登山鉄道鋼索線,,,,139.04142379760742,35.248167,15,0,2,"2019/2/27, 9:42 AM","2019/12/9, 7:19 AM","{強羅,公園下,公園上,中強羅,上強羅,早雲山}"
99304,119,都営新宿線,トエイシンジュクセン,都営新宿線,,,,139.80940398416863,35.689174794941536,11,0,2,"2019/2/27, 9:42 AM","2019/12/9, 7:19 AM","{新宿,新宿三丁目,曙橋,市ヶ谷,九段下,神保町,小川町,岩本町,馬喰横山,浜町,森下,菊川,住吉,西大島,大島,東大島,船堀,一之江,瑞江,篠崎,本八幡}"
99302,119,都営浅草線,トエイアサクサセン,都営浅草線,,,,139.75860382724613,35.66226194441651,12,0,4,"2019/2/27, 9:42 AM","2019/12/9, 7:19 AM","{西馬込,馬込,中延,戸越,五反田,高輪台,泉岳寺,三田,大門,新橋,東銀座,宝町,日本橋,人形町,東日本橋,浅草橋,蔵前,浅草,本所吾妻橋,押上（スカイツリー前）}"
99308,122,いすみ線,イスミセン,いすみ鉄道いすみ線,,,,140.29133946832712,35.26741095082192,12,0,"99,308","2019/2/27, 9:42 AM","2019/12/9, 7:19 AM","{大原,西大原,上総東,新田野,国吉,上総中川,城見ヶ丘,大多喜,小谷松,東総元,久我原,総元,西畑,上総中野}"
99313,127,ユーカリが丘線,ユーガリガオカセン,山万ユーカリが丘線,,,,140.15304849735844,35.73088307487995,15,0,"99,313","2019/2/27, 9:42 AM","2019/12/9, 7:19 AM","{ユーカリが丘,地区センター,公園,女子大,中学校,井野}"
99315,129,ひたちなか海浜鉄道湊線,ヒタチナカカイヒンテツドウミナトセン,ひたちなか海浜鉄道湊線,,,,140.5729551640104,36.37147622741153,12,0,"99,315","2019/2/27, 9:42 AM","2019/12/9, 7:19 AM","{阿字ヶ浦,磯崎,平磯,殿山,那珂湊,高田の鉄橋,中根,金上,工機前,勝田}"
99319,132,関東鉄道竜ヶ崎線,カントウテツドウリュウガサキセン,関東鉄道竜ヶ崎線,,,,140.1573066931153,35.91893164719257,13,0,"99,319","2019/2/27, 9:42 AM","2019/12/9, 7:19 AM","{佐貫,入地,竜ヶ崎}"
99321,134,ニューシャトル,ニューシャトル,埼玉新都市交通伊奈線,,,,139.6162807708505,35.96269513473074,12,0,"99,321","2019/2/27, 9:42 AM","2019/12/9, 7:19 AM","{大宮,鉄道博物館,加茂宮,東宮原,今羽,吉野原,原市,沼南,丸山,志久,伊奈中央,羽貫,内宿}"
99324,137,芝山鉄道線,シバヤマテツドウセン,芝山鉄道線,,,,140.39236169311528,35.7635624338256,14,0,"99,324","2019/2/27, 9:42 AM","2019/12/9, 7:19 AM","{東成田,芝山千代田}"
99325,138,小湊鉄道線,コミナトテツドウセン,小湊鉄道線,,,,140.12739861631496,35.395848485771744,11,0,"99,325","2019/2/27, 9:42 AM","2019/12/9, 7:19 AM","{五井,上総村上,海士有木,上総三又,上総山田,光風台,馬立,上総牛久,上総川間,上総鶴舞,上総久保,高滝,里見,飯給,月崎,上総大久保,養老渓谷,上総中野}"
99329,142,新京成線,シンケイセイセン,新京成電鉄新京成線,,,,139.97042634374998,35.759050705693504,12,0,"99,329","2019/2/27, 9:42 AM","2019/12/9, 7:19 AM","{京成津田沼,新津田沼,前原,薬園台,習志野,北習志野,高根木戸,高根公団,滝不動,三咲,二和向台,鎌ヶ谷大仏,初富,新鎌ヶ谷,北初富,くぬぎ山,元山,五香,常盤平,八柱,みのり台,松戸新田,上本郷,松戸}"
99331,144,千葉都市モノレール１号線,チバトシモノレールイチゴウセン,千葉都市モノレール１号線,,,,140.1131078677198,35.60826509181115,14,0,"99,331","2019/2/27, 9:42 AM","2019/12/9, 7:19 AM","{千葉みなと,市役所前,千葉,栄町,葭川公園,県庁前}"
99333,145,流鉄流山線,リュウテツナガレヤマセン,流鉄流山線,,,,139.91199264550778,35.83792664205616,13,0,"99,333","2019/2/27, 9:42 AM","2019/12/9, 7:19 AM","{馬橋,幸谷,小金城趾,鰭ヶ崎,平和台,流山}"
99335,147,銚子電鉄線,チョウシデンテツセン,銚子電気鉄道線,,,,140.84740317246087,35.71912821238162,13,0,"99,335","2019/2/27, 9:42 AM","2019/12/9, 7:19 AM","{銚子,仲ノ町,観音,本銚子,笠上黒生,西海鹿島,海鹿島,君ヶ浜,犬吠,外川}"
99341,153,ほっとスパ・ライン,ホットスパライン,野岩鉄道会津鬼怒川線,,,,139.70133274067064,36.98733557444938,11,0,"99,341","2019/2/27, 9:42 AM","2019/12/9, 7:19 AM","{新藤原,龍王峡,川治温泉,川治湯元,湯西川温泉,中三依温泉,上三依塩原温泉口,男鹿高原,会津高原尾瀬口}"
99343,130,グリーンライン,グリーンライン,横浜市高速鉄道4号線,,,,139.58693689521488,35.54724579840772,13,0,2,"2019/2/27, 9:42 AM","2019/12/9, 7:19 AM","{中山,川和町,都筑ふれあいの丘,センター南,センター北,北山田,東山田,高田,日吉本町,日吉}"
99310,124,みなとみらい線,ミナトミライセン,みなとみらい21線,,,,139.63609880159174,35.45568263801604,14,0,1,"2019/2/27, 9:42 AM","2019/12/9, 7:19 AM","{横浜,新高島,みなとみらい,馬車道,日本大通り,元町・中華街}"
99337,149,りんかい線,リンカイセン,東京臨海高速鉄道りんかい線,,,,139.7661296428223,35.62373301157322,13,0,1,"2019/2/27, 9:42 AM","2019/12/9, 7:19 AM","{新木場,東雲,国際展示場,東京テレポート,天王洲アイル,品川シーサイド,大井町,大崎}"
99311,125,ゆりかもめ,ユリカモメ,ゆりかもめ東京臨海新交通臨海線,,,,139.77494982373048,35.64286984685855,13,0,1,"2019/2/27, 9:42 AM","2019/12/9, 7:19 AM","{新橋,汐留,竹芝,日の出,芝浦ふ頭,お台場海浜公園,台場,東京国際クルーズターミナル,テレコムセンター,青海,東京ビッグサイト,有明,有明テニスの森,市場前,新豊洲,豊洲}"
99317,131,金沢シーサイドライン,カナザワシーサイドライン,横浜新都市交通金沢シーサイドライン,,,,139.63114433063186,35.36215674895553,13,0,1,"2019/2/27, 9:42 AM","2019/12/9, 7:19 AM","{新杉田,南部市場,鳥浜,並木北,並木中央,幸浦,産業振興センター,福浦,市大医学部,八景島,海の公園柴口,海の公園南口,野島公園,金沢八景}"
99320,133,江ノ島電鉄線,エノシマデンテツセン,江ノ島電鉄線,,,,139.5124071047851,35.32608820262835,13,0,1,"2019/2/27, 9:42 AM","2019/12/9, 7:19 AM","{藤沢,石上,柳小路,鵠沼,湘南海岸公園,江ノ島,腰越,鎌倉高校前,七里ヶ浜,稲村ヶ崎,極楽寺,長谷,由比ヶ浜,和田塚,鎌倉}"
99427,156,北しなの線,キタシナノセン,北しなの線,,,,138.21050165919587,36.755306038955474,11,0,"99,403","2019/2/27, 9:42 AM","2019/12/9, 7:19 AM","{長野,北長野,三才,豊野,牟礼,古間,黒姫,妙高高原}"
99404,157,上田電鉄別所線,ウエダデンテツベッショセン,上田電鉄別所線,,,,138.2109222560839,36.37625258348015,13,0,"99,404","2019/2/27, 9:42 AM","2019/12/9, 7:19 AM","{上田,城下,三好町,赤坂上,上田原,寺下,神畑,大学前,下之郷,中塩田,塩田町,中野,舞田,八木沢,別所温泉}"
99406,158,長野電鉄屋代線,ナガノデンテツヤシロセン,長野電鉄屋代線,,,,138.21193550511123,36.59924925239538,12,2,"99,406","2019/2/27, 9:42 AM","2019/12/9, 7:19 AM","{屋代,東屋代,雨宮,岩野,象山口,松代,金井山,大室,信濃川田,若穂,綿内,井上,須坂}"
99409,160,富山地鉄立山線,トヤマチテツタテヤマセン,富山地鉄立山線,,,,137.37055082296035,36.63259703593658,12,0,"99,409","2019/2/27, 9:42 AM","2019/12/9, 7:19 AM","{寺田,稚子塚,田添,五百石,榎町,下段,釜ヶ淵,沢中山,岩峅寺,横江,千垣,有峰口,本宮,立山}"
99411,161,神岡鉄道神岡線,カミオカテツドウカミオカセン,神岡鉄道神岡線,,,,137.27280775390625,36.404333174001536,12,2,"99,411","2019/2/27, 9:42 AM","2019/12/9, 7:19 AM","{猪谷,飛騨中山,茂住,漆山,神岡鉱山前,飛騨神岡,神岡大橋,奥飛騨温泉口}"
99412,162,黒部峡谷鉄道本線,クロベキョウコクテツドウホンセン,黒部峡谷鉄道本線,,,,137.62933635449212,36.771398208953364,12,0,"99,412","2019/2/27, 9:42 AM","2019/12/9, 7:19 AM","{宇奈月,黒薙,鐘釣,欅平}"
99422,160,富山地鉄富山都心線【３系統(環状線)】,トヤマチテツトヤマトシンセン,富山地鉄富山都心線,,,,137.21288681030273,36.6955391541321,15,0,"99,413","2019/2/27, 9:42 AM","2019/12/9, 7:19 AM","{丸の内,国際会議場前,大手モール,グランドプラザ前,中町（西町北）,荒町,桜橋,電気ビル前,地鉄ビル前,電鉄富山駅・エスタ前,富山駅,新富町,県庁前}"
99415,164,富山ライトレール,トヤマライトレール,富山ライトレール,,,,137.22737010624257,36.73584006840866,13,0,"99,415","2019/2/27, 9:42 AM","2019/12/9, 7:19 AM","{富山駅北,インテック本社前,奥田中学校前,下奥井,粟島（大阪屋ショップ前）,越中中島,城川原,犬島新町,蓮町,大広田,東岩瀬,競輪場前,岩瀬浜}"
99417,165,北陸鉄道浅野川線,ホクリクテツドウアサノガワセン,北陸鉄道浅野川線,,,,136.64124453303702,36.61101107753476,13,0,"99,417","2019/2/27, 9:42 AM","2019/12/9, 7:19 AM","{北鉄金沢,七ツ屋,上諸江,磯部,割出,三口,三ツ屋,大河端,北間,蚊爪,粟ヶ崎,内灘}"
99424,244,妙高はねうまライン,ミョウコウハネウマライン,妙高はねうまライン,,,,138.00562843680382,37.09275022236878,10,0,"99,417","2019/2/27, 9:42 AM","2019/12/9, 7:19 AM","{直江津,春日山,高田,南高田,上越妙高,北新井,新井,二本木,関山,妙高高原}"
99426,246,IRいしかわ鉄道線,アイアールイシカワテツドウセン,IRいしかわ鉄道株式会社,,,,136.85206406749785,36.661886043477686,10,0,"99,417","2019/2/27, 9:42 AM","2019/12/9, 7:19 AM","{金沢,東金沢,森本,津幡,倶利伽羅}"
99418,166,のと鉄道七尾線,ノトテツドウナナオセン,のと鉄道七尾線,,,,136.90441537109382,37.12448506777653,11,0,"99,418","2019/2/27, 9:42 AM","2019/12/9, 7:19 AM","{七尾,和倉温泉,田鶴浜,笠師保,能登中島,西岸,能登鹿島,穴水}"
99421,168,福井鉄道福武線,フクイテツドウフクブセン,福井鉄道福武線,,,,136.20680539160162,36.01077557427893,12,0,"99,421","2019/2/27, 9:42 AM","2019/12/9, 7:19 AM","{越前武生,北府,スポーツ公園,家久,サンドーム西,西鯖江,西山公園,水落,神明,鳥羽中,三十八社,泰澄の里,浅水,ハーモニーホール,清明,江端,ベル前,花堂,赤十字前,商工会議所前,足羽山公園口,福井城址大名町,福井駅,仁愛女子高校,田原町}"
99503,170,岳南鉄道線,ガクナンテツドウセン,岳南鉄道線,,,,138.7141213772461,35.15955767005036,13,0,"99,503","2019/2/27, 9:42 AM","2019/12/9, 7:19 AM","{吉原,ジヤトコ前（ジヤトコ１地区前）,吉原本町,本吉原,岳南原田,比奈,岳南富士岡,須津,神谷,岳南江尾}"
99506,173,遠州鉄道鉄道線,エンシュウテツドウテツドウセン,遠州鉄道鉄道線,,,,137.7761985291928,34.78157170063818,12,0,"99,506","2019/2/27, 9:42 AM","2019/12/9, 7:19 AM","{新浜松,第一通り,遠州病院,八幡,助信,曳馬,上島,自動車学校前,さぎの宮,積志,遠州西ヶ崎,遠州小松,浜北,美薗中央公園,遠州小林,遠州芝本,遠州岩水寺,西鹿島}"
99507,174,大井川鐵道大井川本線,オオイガワテツドウオオイガワホンセン,大井川鐵道大井川本線,,,,138.10725218575567,34.96974306611443,11,0,"99,507","2019/2/27, 9:42 AM","2019/12/9, 7:19 AM","{金谷,新金谷,代官町,日切,五和,神尾,福用,大和田,家山,抜里,川根温泉笹間渡,地名,塩郷,下泉,田野口,駿河徳山,青部,崎平,千頭}"
99509,175,あおなみ線,アオナミセン,西名古屋港線,,,,136.86506338192567,35.12536651434047,12,0,"99,509","2019/2/27, 9:42 AM","2019/12/9, 7:19 AM","{名古屋,ささしまライブ,小本,荒子,南荒子,中島,名古屋競馬場前,荒子川公園,稲永,野跡,金城ふ頭}"
99512,178,リニモ,リニモ,東部丘陵線,,,,137.060015783037,35.171156191479255,13,0,"99,512","2019/2/27, 9:42 AM","2019/12/9, 7:19 AM","{藤が丘,はなみずき通,杁ヶ池公園,長久手古戦場,芸大通,公園西,愛・地球博記念公園,陶磁資料館南,八草}"
99515,179,名古屋市営地下鉄名港線,ナゴヤシエイチカテツメイコウセン,名古屋市営地下鉄名港線,9B74C1,藤色,,136.88966853969168,35.12510133132909,13,0,"99,515","2019/2/27, 9:42 AM","2019/12/9, 7:19 AM","{金山,日比野,六番町,東海通,港区役所,築地口,名古屋港}"
99517,179,名古屋市営地下鉄桜通線,ナゴヤシエイチカテツサクラドオリセン,名古屋市営地下鉄桜通線,FF0000,赤,,136.9382243862808,35.14066755400127,12,0,"99,517","2019/2/27, 9:42 AM","2019/12/9, 7:19 AM","{中村区役所,名古屋,国際センター,丸の内,久屋大通,高岳,車道,今池,吹上,御器所,桜山,瑞穂区役所,瑞穂運動場西,新瑞橋,桜本町,鶴里,野並,鳴子北,相生山,神沢,徳重}"
99518,179,名古屋市営地下鉄上飯田線,ナゴヤシエイチカテツカミイイダセン,名古屋市営地下鉄上飯田線,FF66C4,桃色,,136.929713,35.201222076956185,15,0,"99,518","2019/2/27, 9:42 AM","2019/12/9, 7:19 AM","{平安通,上飯田}"
99521,181,豊橋鉄道東田本線,トヨハシテツドウアヅマダホンセン,豊橋鉄道東田本線,,,,137.4057545608565,34.76500605932439,14,0,"99,521","2019/2/27, 9:42 AM","2019/12/9, 7:19 AM","{駅前,駅前大通,新川,札木,市役所前,豊橋公園前,東八町,前畑,東田坂上,東田,競輪場前,井原,赤岩口,運動公園前}"
99522,181,豊橋鉄道運動公園前線,トヨハシテツドウウンドウコウエンマエセン,豊橋鉄道運動公園前線,,,,137.42205658465582,34.76186984458542,16,2,"99,522","2019/2/27, 9:42 AM","2019/12/9, 7:19 AM","{井原,運動公園前}"
99524,183,明知鉄道明知線,アケチテツドウアケチセン,明知鉄道明知線,,,,137.4120125492267,35.38280304135589,12,0,"99,524","2019/2/27, 9:42 AM","2019/12/9, 7:19 AM","{恵那,東野,飯沼,阿木,飯羽間,極楽,岩村,花白温泉,山岡,野志,明智}"
99526,185,樽見鉄道樽見線,タルミテツドウタルミセン,樽見鉄道樽見線,,,,136.62831882052126,35.51524593869538,11,0,"99,526","2019/2/27, 9:42 AM","2019/12/9, 7:19 AM","{大垣,東大垣,横屋,十九条,美江寺,北方真桑,モレラ岐阜,糸貫,本巣,織部,木知原,谷汲口,神海,高科,鍋原,日当,高尾,水鳥,樽見}"
99529,186,三岐鉄道北勢線,サンギテツドウホクセイセン,三岐鉄道北勢線,,,,136.5984984427255,35.094626678728616,12,0,"99,529","2019/2/27, 9:42 AM","2019/12/9, 7:19 AM","{西桑名,馬道,西別所,蓮花寺,在良,星川,七和,穴太,東員,大泉,楚原,麻生田,阿下喜}"
99531,188,伊賀鉄道伊賀線,イガテツドウイガセン,伊賀鉄道伊賀線,,,,136.13962606612438,34.733360528717526,12,0,"99,531","2019/2/27, 9:42 AM","2019/12/9, 7:19 AM","{伊賀上野,新居,西大手,上野市,広小路,茅町,桑町,四十九,猪田道,市部,依那古,丸山,上林,比土,伊賀神戸}"
99602,190,近江鉄道多賀線,オウミテツドウタガセン,近江鉄道多賀線,,,,136.26770142326177,35.23325260938306,14,0,"99,602","2019/2/27, 9:42 AM","2019/12/9, 7:19 AM","{高宮,スクリーン,多賀大社前}"
99603,190,近江鉄道八日市線,オウミテツドウヨウカイチセン,近江鉄道八日市線,,,,136.15042189410838,35.11096374406687,13,0,"99,603","2019/2/27, 9:42 AM","2019/12/9, 7:19 AM","{八日市,新八日市,太郎坊宮前,市辺,平田,武佐,近江八幡}"
99604,191,信楽高原鐵道信楽線,シガラキコウゲンテツドウシガラキセン,信楽高原鐵道信楽線,,,,136.09384466406254,34.91316864913635,12,0,"99,604","2019/2/27, 9:42 AM","2019/12/9, 7:19 AM","{貴生川,紫香楽宮跡,雲井,勅旨,玉桂寺前,信楽}"
99606,193,叡山電鉄叡山本線,エイザンデンテツエイザンホンセン,叡山電鉄叡山本線,,,,135.79087965808105,35.050004221782494,13,0,"99,606","2019/2/27, 9:42 AM","2019/12/9, 7:19 AM","{出町柳,元田中,茶山,一乗寺,修学院,宝ヶ池,三宅八幡,八瀬比叡山口}"
99608,194,宮福線,ミヤフクセン,宮福線,,,,135.1450786402022,35.42665060734551,11,0,"99,608","2019/2/27, 9:42 AM","2019/12/9, 7:19 AM","{福知山,福知山市民病院口,荒河かしの木台,牧,下天津,公庄,大江,大江高校前,二俣,大江山口内宮,辛皮,喜多,宮村,宮津}"
99653,194,宮舞線,ミヤマイセン,宮舞線,,,,135.2654790552333,35.499724785792125,11,0,"99,609","2019/2/27, 9:42 AM","2019/12/9, 7:19 AM","{宮津,栗田,丹後由良,丹後神崎,東雲,四所,西舞鶴}"
99611,195,京都市営地下鉄東西線,キョウトシエイチカテツトウザイセン,京都市営地下鉄東西線,,,,135.76612153489418,34.97917107848443,12,0,"99,611","2019/2/27, 9:42 AM","2019/12/9, 7:19 AM","{六地蔵,石田,醍醐,小野,椥辻,東野,山科,御陵,蹴上,東山,三条京阪,京都市役所前,烏丸御池,二条城前,二条,西大路御池,太秦天神川}"
99613,196,京福電鉄北野線,ケイフクデンテツキタノセン,京福電鉄北野線,,,,135.71240194707354,35.025937048312144,14,0,"99,613","2019/2/27, 9:42 AM","2019/12/9, 7:19 AM","{帷子ノ辻,撮影所前,常盤,鳴滝,宇多野,御室仁和寺,妙心寺,龍安寺,等持院,北野白梅町}"
99616,198,泉北高速鉄道線,センボクコウソクテツドウセン,泉北高速鉄道線,,,,135.48923516667003,34.50927755893809,12,0,"99,616","2019/2/27, 9:42 AM","2019/12/9, 7:19 AM","{中百舌鳥,深井,泉ヶ丘,栂・美木多,光明池,和泉中央}"
99618,249,大阪メトロ御堂筋線,オオサカメトロミドウスジセン,高速電気軌道第1号線,e5171f,臙脂,,135.51183765507812,34.674645463964715,11,0,"99,618","2019/2/27, 9:42 AM","2019/12/9, 7:19 AM","{江坂,東三国,新大阪,西中島南方,中津,梅田,淀屋橋,本町,心斎橋,なんば,大国町,動物園前,天王寺,昭和町,西田辺,長居,あびこ,北花田,新金岡,なかもず}"
99622,249,大阪メトロ千日前線,オオサカメトロセンニチマエセン,高速電気軌道第5号線,e44d93,紅梅,,135.51530017459822,34.676715098117384,13,0,"99,622","2019/2/27, 9:42 AM","2019/12/9, 7:19 AM","{野田阪神,玉川,阿波座,西長堀,桜川,なんば,日本橋,谷町九丁目,鶴橋,今里,新深江,小路,北巽,南巽}"
99340,152,北総鉄道北総線,ホクソウテツドウホクソウセン,北総鉄道北総線,,,,140.03784499075186,35.783462858466144,11,0,1,"2019/2/27, 9:42 AM","2019/12/9, 7:19 AM","{京成高砂,新柴又,矢切,北国分,秋山,東松戸,松飛台,大町,新鎌ヶ谷,西白井,白井,小室,千葉ニュータウン中央,印西牧の原,印旛日本医大}"
99624,249,大阪メトロ長堀鶴見緑地線,オオサカメトロナガホリツルミリョクチセン,高速電気軌道第7号線,a9cc51,萌黄,,135.5382456206928,34.69274887971049,12,0,"99,624","2019/2/27, 9:42 AM","2019/12/9, 7:19 AM","{大正,ドーム前千代崎,西長堀,西大橋,心斎橋,長堀橋,松屋町,谷町六丁目,玉造,森ノ宮,大阪ビジネスパーク,京橋,蒲生四丁目,今福鶴見,横堤,鶴見緑地,門真南}"
99626,201,大阪モノレール線,オオサカモノレールセン,大阪モノレール線,5058C3,青,,135.52449542856994,34.789061357142984,12,0,"99,626","2019/2/27, 9:42 AM","2019/12/9, 7:19 AM","{大阪空港,蛍池,柴原阪大前,少路,千里中央,山田,万博記念公園,宇野辺,南茨木,沢良宜,摂津,南摂津,大日,門真市}"
99627,201,大阪モノレール彩都線,オオサカモノレールサイトセン,国際文化公園都市線,5058C3,青,,135.52708881796877,34.83077567131581,13,0,"99,627","2019/2/27, 9:42 AM","2019/12/9, 7:19 AM","{万博記念公園,公園東口,阪大病院前,豊川,彩都西}"
99628,202,阪堺電軌上町線,ハンカイデンキウエマチセン,阪堺電軌上町線,083388,紺,,135.50418701828562,34.62745794872428,14,0,"99,628","2019/2/27, 9:42 AM","2019/12/9, 7:19 AM","{天王寺駅前,阿倍野,松虫,東天下茶屋,北畠,姫松,帝塚山三丁目,帝塚山四丁目,神ノ木,住吉,住吉公園}"
99630,203,神戸高速東西線,コウベコウソクトウザイセン,神戸高速東西線,2560A8,青,,135.17274029101566,34.6779566632106,13,0,"99,630","2019/2/27, 9:42 AM","2019/12/9, 7:19 AM","{三宮,花隈,元町,西元町,高速神戸,新開地,大開,高速長田,西代}"
99631,203,神戸高速南北線,コウベコウソクナンボクセン,神戸高速南北線,2560A8,青,,135.16738643121334,34.67788462880593,16,0,"99,631","2019/2/27, 9:42 AM","2019/12/9, 7:19 AM","{新開地,湊川}"
99633,204,三田線,サンダセン,神鉄三田線,D53924,朱,,135.22213786347652,34.85009861306197,12,0,"99,633","2019/2/27, 9:42 AM","2019/12/9, 7:19 AM","{有馬口,五社,岡場,田尾寺,二郎,道場南口,神鉄道場,横山,三田本町,三田}"
99636,205,北神急行北神線,ホクシンキュウコウホクシンセン,北神急行電鉄北神線,D59A00,ゴールド,,135.18049909521483,34.734054,12,0,"99,636","2019/2/27, 9:42 AM","2019/12/9, 7:19 AM","{新神戸,谷上}"
99638,206,山陽電鉄網干線,サンヨウデンテツアボシセン,山陽電鉄網干線,F45757,赤,,134.62899303704387,34.796193571428994,13,0,"99,638","2019/2/27, 9:42 AM","2019/12/9, 7:19 AM","{飾磨,西飾磨,夢前川,広畑,山陽天満,平松,山陽網干}"
99615,207,能勢電鉄妙見線,ノセデンテツミョウケンセン,能勢電鉄妙見線,,,,135.42379891800647,34.872305222944874,12,0,"99,640","2019/2/27, 9:42 AM","2019/12/9, 7:19 AM","{川西能勢口,絹延橋,滝山,鶯の森,鼓滝,多田,平野,一の鳥居,畦野,山下,笹部,光風台,ときわ台,妙見口}"
99640,207,能勢電鉄日生線,ノセデンテツニッセイセン,能勢電鉄日生線,B72142,あずき,,135.402694,34.90081280377896,14,0,"99,640","2019/2/27, 9:42 AM","2019/12/9, 7:19 AM","{山下,日生中央}"
99643,209,北条鉄道北条線,ホウジョウテツドウホウジョウセン,北条鉄道北条線,7564D3,青紫,,134.86388578710944,34.89497887938063,12,0,"99,643","2019/2/27, 9:42 AM","2019/12/9, 7:19 AM","{粟生,網引,田原,法華口,播磨下里,長,播磨横田,北条町}"
99645,211,神戸市営地下鉄西神線,コウベシエイチカテツセイシンセン,神戸市営地下鉄西神線,01AF98,緑,,135.06888940733063,34.68307241667748,12,0,"99,645","2019/2/27, 9:42 AM","2019/12/9, 7:19 AM","{新長田,板宿,妙法寺,名谷,総合運動公園,学園都市,伊川谷,西神南,西神中央}"
99646,211,神戸市営地下鉄山手線,コウベシエイチカテツヤマテセン,神戸市営地下鉄山手線,01AF98,緑,,135.1714744477539,34.6803221227098,13,0,"99,646","2019/2/27, 9:42 AM","2019/12/9, 7:19 AM","{新神戸,三宮,県庁前,大倉山,湊川公園,上沢,長田,新長田}"
99649,212,六甲ライナー,ロッコウライナー,神戸新交通六甲アイランド線,1FCB9F,エメラルド,,135.26778466666997,34.70298944416577,14,0,"99,649","2019/2/27, 9:42 AM","2019/12/9, 7:19 AM","{住吉,魚崎,南魚崎,アイランド北口,アイランドセンター,マリンパーク}"
99650,213,紀州鉄道線,キシュウテツドウセン,紀州鉄道線,081042,紺,,135.1561255375732,33.895428111876996,14,0,"99,650","2019/2/27, 9:42 AM","2019/12/9, 7:19 AM","{御坊,学門,紀伊御坊,市役所前,西御坊}"
99701,215,若桜線,ワカサセン,若桜鉄道若桜線,,,,134.30236431217782,35.37899166666703,12,0,"99,701","2019/2/27, 9:42 AM","2019/12/9, 7:19 AM","{郡家,八頭高校前,因幡船岡,隼,安部,八東,徳丸,丹比,若桜}"
99703,216,大社線,タイシャセン,一畑電車大社線,,,,132.7302838910157,35.38956500684399,12,0,"99,703","2019/2/27, 9:42 AM","2019/12/9, 7:19 AM","{川跡,高浜,遙堪,浜山公園北口,出雲大社前}"
99704,217,水島本線,ミズシマホンセン,水島臨海鉄道水島本線,,,,133.7478599137695,34.56420735349222,13,0,"99,704","2019/2/27, 9:42 AM","2019/12/9, 7:19 AM","{倉敷市,球場前,西富井,福井,浦田,弥生,栄,常盤,水島,三菱自工前}"
99706,219,東山線,ヒガシヤマセン,岡山電軌東山本線,,,,133.93158823068848,34.66244005774978,15,0,"99,706","2019/2/27, 9:42 AM","2019/12/9, 7:19 AM","{岡山駅前,西川緑道公園,柳川,城下,県庁通り,西大寺町,小橋,中納言,門田屋敷,東山}"
99708,220,スカイレールみどり坂線,スカイレールミドリザカセン,広島短距離交通瀬野線,,,,132.59332400529308,34.42745863778749,15,0,"99,708","2019/2/27, 9:42 AM","2019/12/9, 7:19 AM","{みどり口,みどり中街,みどり中央}"
99213,114,阿武隈急行線,アブクマキュウコウセン,阿武隈急行線,,,,140.66291748632807,37.91917559631477,11,0,"99,213","2019/2/27, 9:42 AM","2019/12/9, 7:19 AM","{福島,卸町,福島学院前,瀬上,向瀬上,高子,上保原,保原,大泉,二井田,新田,梁川,やながわ希望の森公園前,富野,兜,あぶくま,丸森,北丸森,南角田,角田,横倉,岡,東船岡,槻木}"
99712,222,広電３号線,ヒロデンサンゴウセン,広電３号線,,,,132.45244206002133,34.38152249800238,13,0,"99,712","2019/2/27, 9:42 AM","2019/12/9, 7:19 AM","{広島港（宇品）,元宇品口,海岸通,宇品五丁目,宇品四丁目,宇品三丁目,宇品二丁目,県病院前,広大附属学校前,皆実町六丁目,御幸橋,広電本社前,日赤病院前,鷹野橋,市役所前,中電前,袋町,本通,紙屋町西,原爆ドーム前,本川町,十日市町,土橋,小網町,天満町,観音町,西観音町,福島町,広電西広島（己斐）}"
99714,222,広電６号線(江波線),ヒロデンロクゴウセン,広電６号線(江波線),,,,132.45429202036132,34.38857228507065,14,0,"99,714","2019/2/27, 9:42 AM","2019/12/9, 7:19 AM","{広島駅,猿猴橋町,的場町,稲荷町,銀山町,胡町,八丁堀,立町,紙屋町東,紙屋町西,原爆ドーム前,本川町,十日市町,土橋,舟入町,舟入本町,舟入幸町,舟入川口町,舟入南,江波}"
99717,222,広電９号線(白島線),ヒロデンキュウゴウセン,広電９号線(白島線),,,,132.4641666931152,34.40080871767487,15,0,"99,717","2019/2/27, 9:42 AM","2019/12/9, 7:19 AM","{八丁堀,女学院前,縮景園前,家庭裁判所前,白島}"
99718,223,錦川清流線,ニシキガワセイリュウセン,錦川鉄道錦川清流線,,,,132.05904670768564,34.20744595108845,11,0,"99,718","2019/2/27, 9:42 AM","2019/12/9, 7:19 AM","{川西,清流新岩国,守内かさ神,南河内,行波,北河内,椋野,南桑,清流みはらし,根笠,河山,柳瀬,錦町}"
99803,225,琴電長尾線,コトデンナガオセン,琴電長尾線,,,,134.09736721950844,34.307010048819265,12,0,"99,803","2019/2/27, 9:42 AM","2019/12/9, 7:19 AM","{高松築港,片原町,瓦町,花園,林道,木太東口,元山,水田,西前田,高田,池戸,農学部前,平木,学園通り,白山,井戸,公文明,長尾}"
99805,226,伊予鉄道郡中線,イヨテツドウグンチュウセン,伊予鉄道郡中線,,,,132.72982015348634,33.80853562434977,12,0,"99,805","2019/2/27, 9:42 AM","2019/12/9, 7:19 AM","{松山市,土橋,土居田,余戸,鎌田,岡田,古泉,松前,地蔵町,新川,郡中,郡中港}"
99806,226,伊予鉄道高浜線,イヨテツドウタカハマセン,伊予鉄道高浜線,,,,132.72769552695308,33.863703568848045,13,0,"99,806","2019/2/27, 9:42 AM","2019/12/9, 7:19 AM","{高浜,梅津寺,港山,三津,山西,西衣山,衣山,古町,大手町,松山市}"
99809,226,伊予鉄道環状線,イヨテツドウカンジョウセン,伊予鉄道２系統,,,,132.76266630157284,33.84375502537703,15,0,"99,809","2019/2/27, 9:42 AM","2019/12/9, 7:19 AM","{松山市駅前,南堀端,市役所前,県庁前,大街道,勝山町,警察署前,上一万,平和通一丁目,赤十字病院前,鉄砲町,清水町,高砂町,木屋町,本町六丁目,萱町六丁目,古町,宮田町,松山駅前,大手町,西堀端}"
99812,226,伊予鉄道本町線,イヨテツドウホンマチセン,伊予鉄道６系統,,,,132.7694636455078,33.8480866024301,14,0,"99,812","2019/2/27, 9:42 AM","2019/12/9, 7:19 AM","{本町六丁目,本町五丁目,本町四丁目,本町三丁目,本町一丁目,南堀端,松山市駅前}"
99814,227,中村線,ナカムラセン,土佐くろしお鉄道中村線,,,,133.04988572057619,33.09467023474289,11,0,"99,814","2019/2/27, 9:42 AM","2019/12/9, 7:19 AM","{窪川,若井,荷稲,伊与喜,土佐佐賀,佐賀公園,土佐白浜,有井川,土佐上川口,海の王迎,浮鞭,土佐入野,西大方,古津賀,中村}"
99818,228,伊野線,イノセン,土佐電鉄伊野線,,,,133.49190174651255,33.55242239209245,12,0,"99,818","2019/2/27, 9:42 AM","2019/12/9, 7:19 AM","{はりまや橋,堀詰,大橋通,高知城前,県庁前,グランド通,枡形,上町一丁目,上町二丁目,上町四丁目,上町五丁目,旭町一丁目,旭駅前通,旭町三丁目,蛍橋,鏡川橋,鴨部,曙町東町,曙町,朝倉,朝倉駅前,朝倉神社前,宮の奥,咥内,宇治団地前,八代通,中山,枝川,伊野商業前,北内,北山,鳴谷,伊野駅前,伊野}"
99901,229,甘木鉄道,アマギテツドウ,甘木鉄道,,,,130.58818008176218,33.41617992560384,12,0,"99,901","2019/2/27, 9:42 AM","2019/12/9, 7:19 AM","{基山,立野,小郡,大板井,松崎,今隈,西太刀洗,山隈,太刀洗,高田,甘木}"
99903,230,糸田線,イトダセン,平成筑豊鉄道糸田線,,,,130.78873194181642,33.65906880564918,13,0,"99,903","2019/2/27, 9:42 AM","2019/12/9, 7:19 AM","{金田,豊前大熊,松山,糸田,大藪,田川後藤寺}"
99928,230,門司港レトロ観光線,モジコウレトロカンコウセン,平成筑豊鉄道門司港レトロ観光線,,,,130.9659487989502,33.95269437674,15,0,"99,904","2019/2/27, 9:42 AM","2019/12/9, 7:19 AM","{九州鉄道記念館,出光美術館,ノーフォーク広場,関門海峡めかり}"
99906,231,福岡市営地下鉄箱崎線,フクオカシエイチカテツハコザキセン,福岡市営地下鉄箱崎線,,,,130.4171162698408,33.61482657019065,14,0,"99,906","2019/2/27, 9:42 AM","2019/12/9, 7:19 AM","{中洲川端,呉服町,千代県庁口,馬出九大病院前,箱崎宮前,箱崎九大前,貝塚}"
99908,232,北九州モノレール,キタキュウシュウモノレール,北九州高速鉄道,,,,130.87351064873872,33.85609519990151,13,0,"99,908","2019/2/27, 9:42 AM","2019/12/9, 7:19 AM","{小倉,平和通,旦過,香春口三萩野,片野,城野,北方,競馬場前,守恒,徳力公団前,徳力嵐山口,志井,企救丘}"
99921,240,肥薩おれんじ鉄道線,ヒサツオレンジテツドウセン,肥薩おれんじ鉄道線,,,,130.39137274078814,32.16841796835533,10,0,"99,921","2019/2/27, 9:42 AM","2019/12/9, 7:19 AM","{八代,肥後高田,日奈久温泉,肥後二見,上田浦,たのうら御立岬公園,肥後田浦,海浦,佐敷,湯浦,津奈木,新水俣,水俣,袋,米ノ津,出水,西出水,高尾野,野田郷,折口,阿久根,牛ノ浜,薩摩大川,西方,薩摩高城,草道,上川内,川内}"
99925,242,鹿児島市電１系統,カゴシマシデンイチケイトウ,鹿児島市電１系統,,,,130.5431421798536,31.563710494242585,13,0,"99,925","2019/2/27, 9:42 AM","2019/12/9, 7:19 AM","{鹿児島駅前,桜島桟橋通,水族館口,市役所前,朝日通,いづろ通,天文館通,高見馬場,甲東中学校前,新屋敷,武之橋,二中通,荒田八幡,騎射場,鴨池,郡元,郡元南,涙橋,南鹿児島駅前,二軒茶屋,宇宿一丁目,脇田,笹貫,上塩屋,谷山}"
31025,21,近鉄京都線,キンテツキョウトセン,近鉄京都線,,,,135.78559927915592,34.85398932929531,11,0,"31,025","2019/2/27, 9:42 AM","2019/12/9, 7:19 AM","{京都,東寺,十条,上鳥羽口,竹田,伏見,近鉄丹波橋,桃山御陵前,向島,小倉,伊勢田,大久保,久津川,寺田,富野荘,新田辺,興戸,三山木,近鉄宮津,狛田,新祝園,木津川台,山田川,高の原,平城,大和西大寺,新大宮,近鉄奈良}"
31027,21,近鉄名古屋線,キンテツナゴヤセン,近鉄名古屋線,,,,136.6438729678631,34.94306110501113,10,0,"31,027","2019/2/27, 9:42 AM","2019/12/9, 7:19 AM","{近鉄名古屋,米野,黄金,烏森,近鉄八田,伏屋,戸田,近鉄蟹江,富吉,佐古木,近鉄弥富,近鉄長島,桑名,益生,伊勢朝日,川越富洲原,近鉄富田,霞ヶ浦,阿倉川,川原町,近鉄四日市,新正,海山道,塩浜,北楠,楠,長太ノ浦,箕田,伊勢若松,千代崎,白子,鼓ヶ浦,磯山,千里,豊津上野,白塚,高田本山,江戸橋,津,津新町,南が丘,久居,桃園,伊勢中川}"
32001,22,南海本線,ナンカイホンセン,南海本線,,,,135.36203065520124,34.49540979409339,10,0,"32,001","2019/2/27, 9:42 AM","2019/12/9, 7:19 AM","{難波,新今宮,天下茶屋,岸里玉出,粉浜,住吉大社,住ノ江,七道,堺,湊,石津川,諏訪ノ森,浜寺公園,羽衣,高石,北助松,松ノ浜,泉大津,忠岡,春木,和泉大宮,岸和田,蛸地蔵,貝塚,二色浜,鶴原,井原里,泉佐野,羽倉崎,吉見ノ里,岡田浦,樽井,尾崎,鳥取ノ荘,箱作,淡輪,みさき公園,孝子,和歌山大学前,紀ノ川,和歌山市}"
32007,22,南海高野線,ナンカイコウヤセン,南海高野線,,,,135.54327309524,34.465338529446896,9,0,"32,007","2019/2/27, 9:42 AM","2019/12/9, 7:19 AM","{難波,今宮戎,新今宮,萩ノ茶屋,天下茶屋,岸里玉出,帝塚山,住吉東,沢ノ町,我孫子前,浅香山,堺東,三国ヶ丘,百舌鳥八幡,中百舌鳥,白鷺,初芝,萩原天神,北野田,狭山,大阪狭山市,金剛,滝谷,千代田,河内長野,三日市町,美加の台,千早口,天見,紀見峠,林間田園都市,御幸辻,橋本,紀伊清水,学文路,九度山,高野下,下古沢,上古沢,紀伊細川,紀伊神谷,極楽橋}"
33001,23,京阪本線,ケイハンホンセン,京阪本線,,,,135.67056437574502,34.84957679442569,10,0,"33,001","2019/2/27, 9:42 AM","2019/12/9, 7:19 AM","{出町柳,神宮丸太町,三条,祇園四条,清水五条,七条,東福寺,鳥羽街道,伏見稲荷,龍谷大前深草,藤森,墨染,丹波橋,伏見桃山,中書島,淀,石清水八幡宮,橋本,樟葉,牧野,御殿山,枚方市,枚方公園,光善寺,香里園,寝屋川市,萱島,大和田,古川橋,門真市,西三荘,守口市,土居,滝井,千林,森小路,関目,野江,京橋,天満橋,北浜,淀屋橋}"
33004,23,京阪鴨東線,ケイハンオウトウセン,京阪鴨東線,,,,135.77218700529306,35.02313233660681,14,0,"33,004","2019/2/27, 9:42 AM","2019/12/9, 7:19 AM","{出町柳,神宮丸太町,三条}"
99330,143,真岡鐵道真岡線,モオカテツドウモオカセン,真岡鐵道真岡線,,,,140.04268148610186,36.44502032664948,11,0,"99,330","2019/2/27, 9:42 AM","2019/12/9, 7:19 AM","{下館,下館二高前,折本,ひぐち,久下田,寺内,真岡,北真岡,西田井,北山,益子,七井,多田羅,市塙,笹原田,天矢場,茂木}"
99913,236,長崎電軌１系統,ナガサキデンキイチゴウケイトウ,長崎電軌１系統,,,,129.86838866057178,32.7687290405174,13,0,"99,913","2019/2/27, 9:42 AM","2019/12/9, 7:19 AM","{赤迫,住吉,昭和町通,千歳町,若葉町,長崎大学,岩屋橋,浦上車庫,大橋,平和公園,原爆資料館,大学病院,浦上駅前,茂里町,銭座町,宝町,八千代町,長崎駅前,五島町,大波止,出島,新地中華街,西浜町,観光通,思案橋,崇福寺}"
99915,236,長崎電軌４系統,ナガサキデンキヨンゴウケイトウ,長崎電軌４系統,,,,129.88416479895022,32.74760460000003,15,0,"99,915","2019/2/27, 9:42 AM","2019/12/9, 7:19 AM","{蛍茶屋,新中川町,新大工町,諏訪神社,市民会館,めがね橋,浜町アーケード,観光通,思案橋,崇福寺}"
